%time,field.header.seq,field.header.stamp,field.header.frame_id,field.pose.position.x,field.pose.position.y,field.pose.position.z,field.pose.orientation.x,field.pose.orientation.y,field.pose.orientation.z,field.pose.orientation.w
1341848016818817428,584,1341848016818817428,map,3.64814376855,-0.294846358033,1.45332152712,0.390765889215,0.0773223735884,-0.574783793931,0.714805472371
1341848016850753668,585,1341848016850753668,map,3.65263369899,-0.293180563941,1.45743043361,0.39084487705,0.0774944557255,-0.574216467325,0.715199517485
1341848016882756718,586,1341848016882756718,map,3.65669099272,-0.288690967441,1.46411703406,0.391679776041,0.0790729625827,-0.574269874017,0.714526781047
1341848016918906930,587,1341848016918906930,map,3.66314839166,-0.283867057564,1.46622612036,0.393210795978,0.0772094028698,-0.57449516864,0.713708127954
1341848016986657591,588,1341848016986657591,map,3.66918111569,-0.279671259052,1.47776199349,0.393756327821,0.0833719935107,-0.572678811941,0.714173666035
1341848017018678333,589,1341848017018678333,map,3.67814401779,-0.273772360129,1.47945475504,0.393906639526,0.0816732188885,-0.576214710529,0.711437726297
1341848017050759816,590,1341848017050759816,map,3.68251122761,-0.268065920118,1.48341007484,0.394593393783,0.0809343248916,-0.577098570484,0.710424470307
1341848017086845123,591,1341848017086845123,map,3.68825478396,-0.265033287064,1.48721112734,0.394783422635,0.0831653647807,-0.579951927156,0.707732532194
1341848017150678002,592,1341848017150678002,map,3.69283771111,-0.258075719434,1.49808200238,0.399290792597,0.0834437715119,-0.585227196349,0.700794633182
1341848017186855075,593,1341848017186855075,map,3.69809688722,-0.251872511124,1.50048856567,0.39978638689,0.0818746040824,-0.589621253813,0.697003706557
1341848017218764974,594,1341848017218764974,map,3.70763788373,-0.245840300811,1.50290288452,0.398318340676,0.079143654382,-0.597679906962,0.691272375109
1341848017286637450,595,1341848017286637450,map,3.71311734093,-0.232574668223,1.51180318817,0.400624575714,0.0728227841485,-0.606135425923,0.683225166544
1341848017354736791,596,1341848017354736791,map,3.71900676991,-0.225171093568,1.5251123381,0.397080684944,0.0663468822098,-0.615431222652,0.677620430198
1341848017418824514,597,1341848017418824514,map,3.72670414927,-0.210977810222,1.53156394963,0.399785324352,0.0569402005541,-0.625232544289,0.667842621635
1341848017454791999,598,1341848017454791999,map,3.72163622336,-0.207044804651,1.5427348605,0.404856719261,0.060079351253,-0.623446641741,0.666179998871
1341848017486698517,599,1341848017486698517,map,3.7270417475,-0.201657894154,1.54191968275,0.40389578929,0.0569020733721,-0.628084609103,0.662676451629
1341848017522694188,600,1341848017522694188,map,3.72785544721,-0.196455634481,1.54752275611,0.402729243714,0.0578330704097,-0.630685727663,0.66083283007
1341848017554796747,601,1341848017554796747,map,3.73003149964,-0.189611896404,1.55039458388,0.401987741716,0.0560776960765,-0.634734214756,0.657551247373
1341848017587837631,602,1341848017587837631,map,3.73243449117,-0.186296170085,1.55238127293,0.40349895621,0.0541772128261,-0.637622160648,0.653981195277
1341848017622713991,603,1341848017622713991,map,3.73454899132,-0.181332218871,1.55475030242,0.401247926097,0.0517302970281,-0.641454338917,0.651813174244
1341848017686820034,604,1341848017686820034,map,3.73592739853,-0.171828048731,1.55613539386,0.399068319571,0.0444096355321,-0.647431568719,0.64776896001
1341848017722837148,605,1341848017722837148,map,3.73666255437,-0.166599725271,1.56369087303,0.400234165342,0.04227603854,-0.650584732972,0.644022411282
1341848017822755821,606,1341848017822755821,map,3.73779552084,-0.147924213968,1.5644424764,0.396017191822,0.0279146188829,-0.656436959352,0.641468382648
1341848017890737394,607,1341848017890737394,map,3.74271755438,-0.140797859427,1.5703182441,0.396492159685,0.0253053369695,-0.659099988198,0.638545855067
1341848017958643133,608,1341848017958643133,map,3.74798315933,-0.135777586891,1.57428419772,0.396477474142,0.0272949640742,-0.662227123209,0.635228957757
1341848017990683373,609,1341848017990683373,map,3.74757131213,-0.125515476811,1.57593008545,0.396663455236,0.0231837333653,-0.662853777665,0.634622327329
1341848018090893687,610,1341848018090893687,map,3.75463214765,-0.118734242109,1.58041199414,0.39879934353,0.026141338259,-0.668510046322,0.62719219617
1341848018159144963,611,1341848018159144963,map,3.76051191343,-0.119990437505,1.58503402385,0.405913334672,0.0243192942727,-0.671116880457,0.619875045118
1341848018226660241,612,1341848018226660241,map,3.76398387922,-0.115292725595,1.58836144081,0.407448765922,0.0233307242513,-0.675414993297,0.614211523438
1341848018333905218,613,1341848018333905218,map,3.77780049256,-0.113973120027,1.59870364533,0.413774061891,0.0228179359321,-0.680608842037,0.604187033299
1341848018433770249,614,1341848018433770249,map,3.7974628056,-0.110541715895,1.60933429847,0.41871105175,0.0179896098653,-0.689077424333,0.591210386278
1341848018501822112,615,1341848018501822112,map,3.80842790569,-0.110887125645,1.61976248386,0.426736449852,0.0142510213032,-0.69138759964,0.582817410763
1341848018601738908,616,1341848018601738908,map,3.83386487647,-0.109493993381,1.63094065714,0.430562311887,0.0128796158227,-0.698968724692,0.570870332013
1341848018633686976,617,1341848018633686976,map,3.84142409412,-0.105390594878,1.63505922605,0.430826367099,0.0125576994898,-0.702421794977,0.566422615349
1341848018669810753,618,1341848018669810753,map,3.85242243457,-0.104903195959,1.64040090555,0.433065905435,0.0122184655572,-0.704672229844,0.561908963481
1341848018733853291,619,1341848018733853291,map,3.86910664899,-0.105753081634,1.6526381947,0.436903159706,0.0151761729505,-0.707814898526,0.554872426217
1341848018802234392,620,1341848018802234392,map,3.88759240672,-0.10497709175,1.66607059118,0.437927988528,0.0151720905546,-0.711112601202,0.549825209113
1341848018933794993,621,1341848018933794993,map,3.92053574646,-0.108012065226,1.69139259367,0.437869380865,0.00994593338252,-0.717464783876,0.541678666171
1341848019096441386,622,1341848019096441386,map,3.947880945,-0.100168231003,1.72323959853,0.437021765107,0.0117075584864,-0.723956134332,0.533631367635
1341848019162651498,623,1341848019162651498,map,3.96098755741,-0.0967851741479,1.73432729155,0.438673810015,0.0111226195767,-0.727991707375,0.526753901926
1341848019198644432,624,1341848019198644432,map,3.96776222347,-0.0954423158914,1.73889790963,0.440575634358,0.0122033293982,-0.729795644503,0.522630414481
1341848019330680408,625,1341848019330680408,map,3.99837169913,-0.094191623493,1.75973667852,0.445526040883,0.0162817513209,-0.739531983658,0.504315273118
1341848019431028294,626,1341848019431028294,map,4.03029163496,-0.0903633671985,1.77693825667,-0.446316216414,-0.0194283153737,0.747972383849,-0.490878489316
1341848019530821259,627,1341848019530821259,map,4.06220057254,-0.0862883926805,1.79735382199,-0.445227137416,-0.0163786964947,0.757279417482,-0.477527408678
1341848019630653909,628,1341848019630653909,map,4.0987458769,-0.0827683399751,1.81671694362,-0.446855887643,-0.0135410895763,0.76274766144,-0.467281999028
1341848019766702626,629,1341848019766702626,map,4.14087763749,-0.0863791145036,1.83773553649,-0.45096921678,-0.0152158391159,0.767740601289,-0.454939117164
1341848019798718808,630,1341848019798718808,map,4.15307318457,-0.08793853695,1.84145555431,-0.451105577375,-0.0148272858712,0.769624559196,-0.451621467149
1341848019898832867,631,1341848019898832867,map,4.17454463958,-0.0848221313334,1.85860678199,-0.45328131382,-0.0118516931221,0.775127505573,-0.439969249143
1341848019934782290,632,1341848019934782290,map,4.18259184,-0.0851807076787,1.86265981452,-0.455943181555,-0.00891312743498,0.776731774956,-0.434423884344
1341848020066695772,633,1341848020066695772,map,4.20475806818,-0.0935351915321,1.87405302424,-0.461285961973,-0.00696065376751,0.78551072332,-0.412479947266
1341848020134758122,634,1341848020134758122,map,4.2156546177,-0.0983068968172,1.87710700454,-0.462038053624,-0.00724107169092,0.789522214147,-0.403884978101
1341848020234872944,635,1341848020234872944,map,4.23418524011,-0.106753566193,1.8908662645,-0.463745571044,-0.00841754291789,0.796457915454,-0.387974186031
1341848020302754480,636,1341848020302754480,map,4.24433848119,-0.11472407424,1.89824794589,-0.462925923691,-0.00905136110528,0.801772643683,-0.377860138541
1341848020370812210,637,1341848020370812210,map,4.25351694079,-0.124483085714,1.9036863282,-0.46444789443,-0.00649882057774,0.806291098065,-0.366252075988
1341848020471199674,638,1341848020471199674,map,4.26694557052,-0.142241471932,1.91230812202,-0.460822398566,-0.00597204963147,0.815875460364,-0.34921951732
1341848020538748072,639,1341848020538748072,map,4.28253251317,-0.14959364742,1.92356574643,-0.460622557572,-0.000737426437972,0.821716836752,-0.335570792294
1341848020570789509,640,1341848020570789509,map,4.28736877697,-0.155861979146,1.92501567199,-0.462170249079,0.00266908214216,0.823382455046,-0.329291479486
1341848020638928731,641,1341848020638928731,map,4.30547151919,-0.165359465692,1.93293531417,-0.467763533265,0.00753713408369,0.825311347884,-0.316230376893
1341848020770816717,642,1341848020770816717,map,4.32788536127,-0.19322606027,1.94478643624,-0.474510739459,0.0085511083216,0.8279745982,-0.298704730603
1341848020807216108,643,1341848020807216108,map,4.33420490264,-0.196276412375,1.94804047902,-0.475419720526,0.0089270423551,0.828256592102,-0.296458109001
1341848020906582469,644,1341848020906582469,map,4.34840897918,-0.213370183357,1.9631450609,-0.477785906702,0.00967716157834,0.830232735989,-0.286950480175
1341848020974874314,645,1341848020974874314,map,4.35124699936,-0.229573315488,1.96676838167,-0.478965291523,0.00996155834115,0.831606026463,-0.280934908405
1341848021039636332,646,1341848021039636332,map,4.36602533315,-0.239446931303,1.97775865279,-0.479384814514,0.00901144210476,0.833713460691,-0.273917616335
1341848021106691184,647,1341848021106691184,map,4.37339938526,-0.250401835684,1.9840899358,-0.480712257995,0.00976526853502,0.83526532163,-0.266743714806
1341848021175037597,648,1341848021175037597,map,4.38153190394,-0.267130432417,1.98964364289,-0.481730480748,0.00859360852569,0.837559183186,-0.257597581583
1341848021242671570,649,1341848021242671570,map,4.39017308183,-0.282803130361,1.993842261,-0.481565609627,0.00694162544351,0.84041223581,-0.248502837925
1341848021274898478,650,1341848021274898478,map,4.39481059028,-0.291723137033,1.9943237502,-0.480099229966,0.00708193931831,0.843146359892,-0.241989230887
1341848021384829454,651,1341848021384829454,map,4.40187656751,-0.316501570736,2.00717659134,-0.47500512381,0.00864977351649,0.850873414609,-0.224298344075
1341848021414271918,652,1341848021414271918,map,4.40685368555,-0.322348662796,2.01451156028,-0.473441008972,0.0114368460755,0.853624123109,-0.216907041358
1341848021514696136,653,1341848021514696136,map,4.42123111921,-0.350191923284,2.02859840013,-0.469555525747,0.0215780066357,0.86081111728,-0.195080010328
1341848021643147114,654,1341848021643147114,map,4.44349936159,-0.387576606169,2.03870816309,-0.466678776465,0.0134064786024,0.866097684766,-0.178622439575
1341848021678764450,655,1341848021678764450,map,4.44542812829,-0.400115662817,2.04379644374,-0.466927858626,0.0118177130858,0.86689780096,-0.174146250859
1341848021742811407,656,1341848021742811407,map,4.45811335182,-0.416704233893,2.0482650574,-0.468104035556,0.0126243284298,0.867703593532,-0.166762459795
1341848021810866903,657,1341848021810866903,map,4.46430279754,-0.434097063497,2.05219060861,-0.470037781695,0.011742806664,0.868301329258,-0.158048727753
1341848021878886676,658,1341848021878886676,map,4.46671375575,-0.458447894546,2.05133939223,-0.470448583768,0.00796258571662,0.869956450167,-0.147616048306
1341848021978746989,659,1341848021978746989,map,4.46694032586,-0.489875557906,2.05437906724,-0.46775431642,0.00502309498852,0.873088298045,-0.137468079584
1341848022010782461,660,1341848022010782461,map,4.46877370938,-0.498829351177,2.05765955764,-0.466465954121,0.00340397288352,0.874211339092,-0.134731067845
1341848022110953647,661,1341848022110953647,map,4.46706819279,-0.532470434428,2.05557450033,-0.46442948526,0.000628674734232,0.877276830253,-0.12120323848
1341848022178987582,662,1341848022178987582,map,4.46241177134,-0.560241873407,2.0566169867,-0.462598251648,-0.000953255809578,0.879626246229,-0.110723204073
1341848022214773207,663,1341848022214773207,map,4.45719988779,-0.570677635761,2.05451384185,-0.461594114033,-0.00205212176657,0.880694777849,-0.10631733192
1341848022354109778,664,1341848022354109778,map,4.44065634968,-0.61161120367,2.04882716843,-0.456539154818,0.00810711925789,0.885974798813,-0.0809624728176
1341848022417847847,665,1341848022417847847,map,4.432231471,-0.62985382289,2.06029437606,-0.456362701544,0.012210177393,0.8870899415,-0.068230704283
1341848022485638018,666,1341848022485638018,map,4.42818022641,-0.646537329222,2.06790585847,-0.45127092865,0.0112927056195,0.890380374039,-0.0587352322875
1341848022586067084,667,1341848022586067084,map,4.41456177896,-0.671811622913,2.07213463003,-0.448003331583,0.0146686856676,0.892746974075,-0.0456146078061
1341848022690287177,668,1341848022690287177,map,4.4013907228,-0.700117086023,2.07394917057,-0.444406736641,0.0165130533541,0.895196891897,-0.0291975270434
1341848022782984646,669,1341848022782984646,map,4.39174142856,-0.726419673919,2.07515767859,-0.447689105523,0.0172763003014,0.893965479744,-0.0100850865452
1341848022882709842,670,1341848022882709842,map,4.3838340322,-0.740821085187,2.07900103709,-0.455715990172,0.0139735343633,0.889974222506,0.00857588869503
1341848022918834930,671,1341848022918834930,map,4.37866696745,-0.758075498587,2.09547957335,-0.468822412614,0.00632408377329,0.883009306314,0.021450500676
1341848023082738146,672,1341848023082738146,map,4.34321483472,-0.808962268906,2.06243925474,-0.469289647182,-0.00225157827275,0.880383390403,0.0684634107103
1341848023118789499,673,1341848023118789499,map,4.34395053061,-0.81773605648,2.06130532028,-0.469657521507,-0.0026488743794,0.879447880323,0.0773706642313
1341848023186686593,674,1341848023186686593,map,4.33539111974,-0.839117280436,2.05003276111,-0.467866289463,-0.000795142927882,0.878630989204,0.0954363028855
1341848023250763818,675,1341848023250763818,map,4.33713732474,-0.850641270523,2.05124111641,-0.476338665456,0.00637988694712,0.872330134561,0.110004082091
1341848023318763595,676,1341848023318763595,map,4.32672408919,-0.875339587222,2.02884327788,-0.481969479021,-0.00580009175019,0.867616341207,0.122121509508
1341848023418716617,677,1341848023418716617,map,4.3180897362,-0.905059832187,2.02087938153,-0.488690152951,-0.00929596390269,0.861338470466,0.138533638847
1341848023454710017,678,1341848023454710017,map,4.31527082746,-0.912608621188,2.01607080248,-0.491071483313,-0.00694942352426,0.858960242321,0.144871687395
1341848023586795863,679,1341848023586795863,map,4.29006159814,-0.942192023206,1.99904652896,-0.492333009148,-0.0108274580413,0.854793578265,0.163764773909
1341848023622845180,680,1341848023622845180,map,4.28697846964,-0.94760736467,1.99928124246,-0.491099222366,-0.00939720107612,0.854798864645,0.167487731516
1341848023687172031,681,1341848023687172031,map,4.27248380585,-0.960409317801,1.99236224059,-0.488589540483,-0.0101381671295,0.853921819791,0.178871488133
1341848023722693430,682,1341848023722693430,map,4.264003563,-0.967588622681,1.98491254814,-0.486321880182,-0.00882058237387,0.854088471001,0.184244676563
1341848023822788480,683,1341848023822788480,map,4.24215042595,-0.983575242686,1.97384671068,-0.484277090608,-0.0115032975425,0.85193983957,0.198851445726
1341848023890666431,684,1341848023890666431,map,4.22397602982,-0.990944582631,1.9641410634,-0.484278880416,-0.0107649470714,0.849749297097,0.208048580146
1341848023922783893,685,1341848023922783893,map,4.21260835416,-0.994478159091,1.96224233676,-0.483466444804,-0.0126973552913,0.849138221327,0.212281080715
1341848023954825754,686,1341848023954825754,map,4.20448200926,-0.996554467557,1.96061855963,-0.481175291113,-0.0120831096424,0.849162398524,0.217365038639
1341848024022670527,687,1341848024022670527,map,4.18879079636,-1.00592630288,1.95045440624,-0.480120820841,-0.0025866179949,0.846187769843,0.231178647608
1341848024090828298,688,1341848024090828298,map,4.16935463357,-1.00988700139,1.94812474259,-0.479199499486,0.00323482473488,0.844649105159,0.238590133918
1341848024190945406,689,1341848024190945406,map,4.14119510108,-1.02045894791,1.93712817774,-0.478512733247,0.0100648792288,0.841274285129,0.251360002398
1341848024258826050,690,1341848024258826050,map,4.12823673367,-1.02059065287,1.93311490283,-0.481192071783,0.0130671557315,0.836774558478,0.260944004952
1341848024358743355,691,1341848024358743355,map,4.10779367067,-1.02768850824,1.92103380536,-0.484542470899,0.0119558668212,0.831340382079,0.271935312247
1341848024390878049,692,1341848024390878049,map,4.10262697936,-1.02898514909,1.91847590111,-0.48373418562,0.0110941151804,0.830652872706,0.275488617314
1341848024426782520,693,1341848024426782520,map,4.09710751915,-1.03121040476,1.91262833195,-0.483647344463,0.0111920442568,0.829312512236,0.279643939543
1341848024458795254,694,1341848024458795254,map,4.08755852547,-1.03401355849,1.90403887354,-0.484597967259,0.0109401767813,0.827284390785,0.283981783416
1341848024491018817,695,1341848024491018817,map,4.08352602098,-1.03838519426,1.90346110808,-0.484999748278,0.0111372501607,0.82558365662,0.288206237456
1341848024526783090,696,1341848024526783090,map,4.07806800699,-1.04254428632,1.89737902644,-0.48628257017,0.00996640613661,0.823361013758,0.292415047752
1341848024594735634,697,1341848024594735634,map,4.06652094979,-1.05121196164,1.88814186243,-0.487437562505,0.0093515244515,0.820387128433,0.298801159364
1341848024626656815,698,1341848024626656815,map,4.06153032253,-1.05559561786,1.88335449658,-0.489164088414,0.00808615518831,0.817781813574,0.303127071245
1341848024694820412,699,1341848024694820412,map,4.05035237444,-1.06612088643,1.87198107286,-0.48900183218,0.00892412448466,0.814511422831,0.312039596358
1341848024727054153,700,1341848024727054153,map,4.04696944659,-1.07164556021,1.86666398234,-0.490553902401,0.0104317862779,0.812048502334,0.315951368755
1341848024794701289,701,1341848024794701289,map,4.03468904144,-1.08313986957,1.86069335756,-0.490500556091,0.00887845577077,0.809241896624,0.323199506939
1341848024862797001,702,1341848024862797001,map,4.02326637814,-1.09981821634,1.84019640795,-0.485873774767,0.0122817267867,0.807678617012,0.333812946433
1341848024926754098,703,1341848024926754098,map,4.0138069538,-1.11743534878,1.83429216584,-0.483260967065,0.0170871350144,0.80578131545,0.341882062108
1341848025026872066,704,1341848025026872066,map,4.00143266625,-1.14583397727,1.81948280504,-0.481002915976,0.0239118507682,0.802137965451,0.353042645392
1341848025131055835,705,1341848025131055835,map,3.98971695868,-1.17147844947,1.80819774742,-0.480720223881,0.0215316537909,0.797792430167,0.363279076075
1341848025194909868,706,1341848025194909868,map,3.98302755323,-1.19027547503,1.80433680564,-0.479313187309,0.024860120561,0.795605761302,0.369665146434
1341848025262678568,707,1341848025262678568,map,3.97148281811,-1.20539265991,1.79795897022,-0.478266887018,0.0268206970728,0.792833955705,0.376770136452
1341848025398825141,708,1341848025398825141,map,3.95497027754,-1.23494441403,1.78800572919,-0.477284769812,0.0269594271508,0.789191053796,0.385551449037
1341848025498682969,709,1341848025498682969,map,3.93895208539,-1.25210389715,1.78031933885,-0.477529021308,0.0237201012894,0.78535474574,0.393219164888
1341848025530800007,710,1341848025530800007,map,3.93371127156,-1.25718062912,1.77476267379,-0.477908982276,0.0238101335197,0.783792302657,0.395860725187
1341848025598738055,711,1341848025598738055,map,3.92567662741,-1.26636938694,1.77007130071,-0.477439334152,0.0231146458511,0.781686343887,0.400604367934
1341848025666676734,712,1341848025666676734,map,3.91739755609,-1.27583122028,1.76480118754,-0.477640257275,0.0238752516524,0.779195506451,0.405147047788
1341848025698755291,713,1341848025698755291,map,3.9138691097,-1.28151183819,1.76300296493,-0.47817766621,0.0231558795007,0.777183643223,0.408406035321
1341848025798908883,714,1341848025798908883,map,3.90040363573,-1.29215514023,1.75032161028,-0.476544443476,0.0214895656365,0.774370892201,0.415684151044
1341848025866678923,715,1341848025866678923,map,3.88863902049,-1.30109359565,1.74334860423,-0.474448397204,0.0252343999818,0.772417561583,0.421465363188
1341848025934824039,716,1341848025934824039,map,3.87961773049,-1.30456071942,1.73451887876,-0.473317905398,0.0289314730435,0.770258100341,0.42642184712
1341848025967137910,717,1341848025967137910,map,3.87632622507,-1.30955384434,1.73234596607,-0.471846456104,0.0300288815007,0.769701679837,0.428973777414
1341848026034640314,718,1341848026034640314,map,3.8651981707,-1.31836425799,1.72314524221,-0.471819931491,0.0329486406982,0.7661464312,0.435109184697
1341848026066857134,719,1341848026066857134,map,3.86012899495,-1.32293677496,1.71975327141,-0.469763032854,0.0336409695749,0.765564957522,0.438293574829
1341848026102822910,720,1341848026102822910,map,3.85749277296,-1.32881562638,1.7151462543,-0.468636068424,0.035400241557,0.764005102935,0.442067046385
1341848026134669948,721,1341848026134669948,map,3.84832054765,-1.33395186382,1.70922806938,-0.468673674365,0.0380172732726,0.761610955167,0.445924236805
1341848026267001283,722,1341848026267001283,map,3.83371371686,-1.35456477859,1.6935070952,-0.465117470854,0.0494261555708,0.755854394684,0.458156006617
1341848026302861052,723,1341848026302861052,map,3.82742930463,-1.35942426072,1.69078255563,-0.467428842576,0.0528027413805,0.752420891761,0.461069348533
1341848026371024301,724,1341848026371024301,map,3.81795035014,-1.36843523735,1.68255406048,-0.465134756866,0.0533281907663,0.749983730239,0.467258138926
1341848026434734403,725,1341848026434734403,map,3.80788645161,-1.3769635148,1.67423039255,-0.461990259359,0.0573957528631,0.74787647159,0.473235162047
1341848026502672404,726,1341848026502672404,map,3.80180436745,-1.38453436659,1.6709784032,-0.458585453581,0.0586208129896,0.74695063611,0.47783649261
1341848026602721112,727,1341848026602721112,map,3.78690591571,-1.3987652413,1.66177245159,-0.45522205865,0.0546503708632,0.745641411475,0.483533971512
1341848026702794895,728,1341848026702794895,map,3.77012464028,-1.41439085059,1.65276270426,-0.453391161935,0.0530619390819,0.744122361037,0.487752795799
1341848026770812973,729,1341848026770812973,map,3.76099556762,-1.42899270586,1.64675915519,-0.453229627979,0.0524312896452,0.743200652115,0.48937371411
1341848026838667950,730,1341848026838667950,map,3.75081975289,-1.44436005839,1.64001085065,-0.455358407238,0.0518530997857,0.741968376037,0.489329040165
1341848026878025120,731,1341848026878025120,map,3.7466504467,-1.45235246359,1.63595508401,-0.456419862333,0.0502332922653,0.741127409017,0.489783315569
1341848026970651207,732,1341848026970651207,map,3.73101998561,-1.48130973999,1.62361731883,-0.458662301336,0.0480151345243,0.740192121493,0.489325098583
1341848027074784433,733,1341848027074784433,map,3.71909372362,-1.51441171498,1.61631338129,-0.45908050592,0.0479273973924,0.739099799368,0.490591016787
1341848027106663307,734,1341848027106663307,map,3.715310872,-1.52225590391,1.61438871878,-0.459316945312,0.0499132063504,0.73773384741,0.492224943815
1341848027174830803,735,1341848027174830803,map,3.70681633517,-1.54517808136,1.60785248009,-0.454510216024,0.0481040663715,0.738563338637,0.495611397781
1341848027207212399,736,1341848027207212399,map,3.70395084132,-1.55311421058,1.60578086163,-0.453224829277,0.0490455668782,0.738236829642,0.497180214011
1341848027306704873,737,1341848027306704873,map,3.69375007097,-1.58634589361,1.60129602028,-0.449117137447,0.0491217046885,0.737217448888,0.502385589569
1341848027374942596,738,1341848027374942596,map,3.68532653749,-1.60787284286,1.59920553673,-0.445030462555,0.0505743543141,0.738391448907,0.504150948513
1341848027442959313,739,1341848027442959313,map,3.675443144,-1.62904526634,1.59636643129,-0.44190716996,0.049285273511,0.740734395187,0.503588727967
1341848027506714350,740,1341848027506714350,map,3.66718416802,-1.65052878657,1.58862116344,-0.436705301303,0.046327625258,0.745401083418,0.501517162175
1341848027543310013,741,1341848027543310013,map,3.66182822075,-1.66060003319,1.58909675378,-0.435731845153,0.0461621538296,0.747483681402,0.499274454921
1341848027674730908,742,1341848027674730908,map,3.64776762731,-1.69573781171,1.58372296848,-0.434111470498,0.041967985422,0.753372230551,0.492154661237
1341848027711026130,743,1341848027711026130,map,3.64259373241,-1.70247481564,1.58158051487,-0.434802730744,0.0424643497275,0.753087585062,0.491937447246
1341848027810746057,744,1341848027810746057,map,3.62434929116,-1.72305372608,1.57474419635,-0.436316776075,0.0396493553422,0.755011270013,0.487866346765
1341848027878669050,745,1341848027878669050,map,3.61395789185,-1.73202160354,1.56052109284,-0.437740260965,0.0385600525781,0.756268065509,0.484721765927
1341848027911126495,746,1341848027911126495,map,3.60998205734,-1.73686147567,1.55713504176,-0.438420442836,0.0369110805997,0.757539574645,0.482243579861
1341848028011033830,747,1341848028011033830,map,3.5908568993,-1.7518010931,1.54975589164,-0.441398897449,0.0320822047862,0.759839181845,0.476216514698
1341848028078966689,748,1341848028078966689,map,3.57149517477,-1.76000289632,1.5427272878,-0.441574285142,0.0307190109915,0.760262608708,0.475467401529
1341848028186050484,749,1341848028186050484,map,3.54797322105,-1.77091794558,1.53092311877,-0.437079299725,0.0305258373903,0.763111342941,0.475069412449
1341848028278829496,750,1341848028278829496,map,3.52949915046,-1.77886945196,1.52006391928,-0.433391531243,0.0312092519293,0.764605692695,0.475999901471
1341848028314907772,751,1341848028314907772,map,3.52359176922,-1.7825699922,1.51749663024,-0.431471409427,0.0311585232255,0.765044466652,0.477041459113
1341848028414628050,752,1341848028414628050,map,3.4992867479,-1.78998533294,1.50463591892,-0.427014477305,0.0324714504543,0.764737992383,0.481435385688
1341848028514701437,753,1341848028514701437,map,3.47614110384,-1.80618374321,1.49221104153,-0.421827042359,0.0349221633493,0.764464566959,0.486247172948
1341848028546611685,754,1341848028546611685,map,3.46005864659,-1.80840294363,1.4858701457,-0.423559364107,0.0359932477573,0.762599028055,0.487590688915
1341848028747229429,755,1341848028747229429,map,3.40313009799,-1.83987367776,1.46167785807,-0.424899010059,0.0368310648855,0.760837037291,0.489112778966
1341848028850772678,756,1341848028850772678,map,3.37605304136,-1.85344186875,1.44949393343,-0.423664718509,0.0365574786908,0.761473320278,0.489213788948
1341848028982690233,757,1341848028982690233,map,3.34492718028,-1.87258423749,1.43346268768,-0.426458905084,0.0412016721695,0.760094020057,0.488561458156
1341848029018728572,758,1341848029018728572,map,3.33889547078,-1.87321967688,1.42981660692,-0.428034274493,0.0391357336497,0.760298125562,0.487033689127
1341848029118800022,759,1341848029118800022,map,3.32093787293,-1.88470860148,1.41747193526,-0.4276345716,0.036500536687,0.759486117593,0.488852937244
1341848029150714760,760,1341848029150714760,map,3.31474229956,-1.88710105288,1.41479201214,-0.429205473115,0.0368204534899,0.758324796514,0.489254972942
1341848029218707727,761,1341848029218707727,map,3.30025040314,-1.89472689261,1.40760996391,-0.432419653254,0.0353259589141,0.755056247799,0.491584578945
1341848029320224947,762,1341848029320224947,map,3.28349679955,-1.90829550137,1.39095077132,-0.432855167214,0.0304114267467,0.751693279403,0.49665758577
1341848029350953518,763,1341848029350953518,map,3.27694943471,-1.91509601367,1.38658905094,-0.431172743032,0.0315165819705,0.751177040495,0.498828443206
1341848029386922587,764,1341848029386922587,map,3.26991291463,-1.91873051035,1.38517413368,-0.431417898777,0.0314608379494,0.750515169793,0.499615630683
1341848029486788342,765,1341848029486788342,map,3.25073870581,-1.93776231713,1.37424530087,-0.429234795279,0.0300838888412,0.746936371289,0.506890994042
1341848029518925539,766,1341848029518925539,map,3.24582971398,-1.94395305547,1.37144393899,-0.428392519605,0.0288021057419,0.745664507064,0.509543651908
1341848029554721445,767,1341848029554721445,map,3.23864650536,-1.95176096229,1.36742103982,-0.4258128084,0.0293069784656,0.744637406281,0.513166329323
1341848029655301694,768,1341848029655301694,map,3.22154424615,-1.97522310665,1.35891185739,-0.421070268718,0.0321115201072,0.741173917287,0.521852384865
1341848029718752111,769,1341848029718752111,map,3.21397406744,-1.99344809369,1.34930988665,-0.41712200082,0.0320827670144,0.739048370925,0.528003209647
1341848029786949351,770,1341848029786949351,map,3.20230400027,-2.00936289556,1.34392851212,-0.414586831437,0.0336437428557,0.735915315656,0.534241981291
1341848029887991794,771,1341848029887991794,map,3.19083881757,-2.03401112792,1.333594838,-0.411647267791,0.0355860351595,0.731122961244,0.542899022668
1341848029954639596,772,1341848029954639596,map,3.18090650024,-2.04920421765,1.32774706234,-0.41181174046,0.0369183401773,0.726744342997,0.54853511265
1341848029990762489,773,1341848029990762489,map,3.17754248315,-2.05662935843,1.32491287356,-0.410596605546,0.0374813849703,0.725392036856,0.551191396219
1341848030054776241,774,1341848030054776241,map,3.16876321571,-2.0701322848,1.31804117093,-0.410630101142,0.0385143941287,0.721743352329,0.555865195231
1341848030090781900,775,1341848030090781900,map,3.16723347456,-2.07518836146,1.3153856012,-0.409682978196,0.039048988311,0.720980979095,0.557513629062
1341848030154918403,776,1341848030154918403,map,3.160261314,-2.08686545374,1.30719337681,-0.408618783851,0.0388535105091,0.717902199923,0.562261100211
1341848030222713445,777,1341848030222713445,map,3.15161019418,-2.09582186488,1.30172254886,-0.408665392645,0.0386430997189,0.713615002375,0.567673276836
1341848030258930428,778,1341848030258930428,map,3.14672284059,-2.10129990625,1.29867836399,-0.40855623605,0.0378835398706,0.710990476877,0.571085954287
1341848030290864542,779,1341848030290864542,map,3.14263453653,-2.10642398329,1.29586594245,-0.408542320593,0.0383366345922,0.708499866624,0.574152806548
1341848030322775033,780,1341848030322775033,map,3.13862103979,-2.10916073788,1.29268014067,-0.409029320888,0.0383012819954,0.706593221675,0.576154538122
1341848030422794920,781,1341848030422794920,map,3.12595000916,-2.12146046446,1.27996383333,-0.409312444711,0.0376934503433,0.698705071837,0.585537123981
1341848030526715461,782,1341848030526715461,map,3.11030665623,-2.13023632476,1.26718721744,-0.409103539635,0.0384018558194,0.692796881759,0.592614599594
1341848030626960676,783,1341848030626960676,map,3.09316397991,-2.14049270593,1.25017053871,-0.403412979142,0.0403653491938,0.687376272904,0.602613028773
1341848030690656393,784,1341848030690656393,map,3.07977436706,-2.14656886925,1.24210754066,-0.398374041368,0.0433305634083,0.685441257505,0.607939869564
1341848030726764717,785,1341848030726764717,map,3.0731444713,-2.15012126651,1.23765593142,-0.396681168557,0.0437229752877,0.683868598753,0.610783173351
1341848030894711270,786,1341848030894711270,map,3.03764140849,-2.17125301467,1.2183745302,-0.380868646825,0.0493405330441,0.676097005315,0.628806353567
1341848030958726633,787,1341848030958726633,map,3.01551211715,-2.17581078058,1.21280795029,-0.374942959956,0.0529181652719,0.673185513687,0.635168248646
1341848030994734795,788,1341848030994734795,map,3.00823219797,-2.1831987891,1.21311970624,-0.371239200355,0.0533033724779,0.671200980426,0.6393977249
1341848031062783267,789,1341848031062783267,map,2.99347764414,-2.19243876023,1.20192497162,-0.362273159063,0.0577763017654,0.671978726612,0.643323118605
1341848031162860401,790,1341848031162860401,map,2.96662161435,-2.20868322498,1.19438227171,-0.35573401991,0.0636545633311,0.671118653591,0.647302993796
1341848031294746729,791,1341848031294746729,map,2.93636728781,-2.22839002741,1.17910477477,-0.352887055993,0.069708437521,0.668776166488,0.650653448069
1341848031330754293,792,1341848031330754293,map,2.93007001321,-2.22946620723,1.17739601682,-0.35306653785,0.0716287939513,0.668270141446,0.650867384789
1341848031394753036,793,1341848031394753036,map,2.91310419567,-2.23861970207,1.17479795922,-0.353209863891,0.0690069007207,0.665694056386,0.653706549045
1341848031472150199,794,1341848031472150199,map,2.90033983594,-2.2433713461,1.1712998664,-0.352059029091,0.0670715989905,0.663340754615,0.656913149785
1341848031502109832,795,1341848031502109832,map,2.8972022041,-2.24798459942,1.16896773232,-0.352440890214,0.0652309641728,0.662014992541,0.658229820265
1341848031598729861,796,1341848031598729861,map,2.88237114143,-2.25782324859,1.1634698295,-0.35025636648,0.0634360368405,0.655656838676,0.665890732295
1341848031698757437,797,1341848031698757437,map,2.86745842269,-2.27032930474,1.15535673928,-0.34616970729,0.0611977428248,0.650164110792,0.673578511873
1341848031766657678,798,1341848031766657678,map,2.85892461153,-2.27772763457,1.15399889609,-0.342654543782,0.0576432278803,0.647954471943,0.677805369174
1341848031798743318,799,1341848031798743318,map,2.85272774863,-2.28310103702,1.14984932635,-0.340708788091,0.0576101773591,0.645024911455,0.681572772751
1341848031830820452,800,1341848031830820452,map,2.8495255107,-2.2882838897,1.14884268273,-0.337531243176,0.0585365060411,0.643100641602,0.68488516213
1341848031866734925,801,1341848031866734925,map,2.84560435998,-2.29236258392,1.1470683915,-0.334770875395,0.0582331643193,0.640900263393,0.688319855976
1341848031898721606,802,1341848031898721606,map,2.83983179764,-2.29594465209,1.14450127985,-0.333386292105,0.0565018710356,0.638179058743,0.691656426384
1341848031930843910,803,1341848031930843910,map,2.8351972184,-2.30162772495,1.14368250152,-0.329790947769,0.0570154269482,0.63678205318,0.694619163929
1341848031998742276,804,1341848031998742276,map,2.8248848681,-2.31321263877,1.13870596302,-0.327779459237,0.0558132055518,0.632602197267,0.699471220829
1341848032098732386,805,1341848032098732386,map,2.8083117978,-2.33071558725,1.12914257358,-0.323424971044,0.0546243308788,0.628426070869,0.705331951912
1341848032166964225,806,1341848032166964225,map,2.79537370925,-2.34581974275,1.12407522297,-0.322590124421,0.0541518264913,0.626264453047,0.707669424961
1341848032203043310,807,1341848032203043310,map,2.78920172026,-2.35098794672,1.12044985798,-0.321511693372,0.0546650760612,0.625795757639,0.708534849758
1341848032302841633,808,1341848032302841633,map,2.77429697358,-2.36640859331,1.10940277824,-0.320862383084,0.0538798307608,0.623042626942,0.711310187121
1341848032334616971,809,1341848032334616971,map,2.77104886489,-2.37377077317,1.10697381642,-0.320083784939,0.0532021922943,0.622656065751,0.712050094611
1341848032402979749,810,1341848032402979749,map,2.76193477858,-2.38139891933,1.10306678286,-0.318796507482,0.0522533705086,0.619690173852,0.715277899559
1341848032502971550,811,1341848032502971550,map,2.74553523945,-2.39624841081,1.09484567005,-0.314931927022,0.0508047277879,0.617630101122,0.71886704557
1341848032534732469,812,1341848032534732469,map,2.74177198407,-2.40231092679,1.09133848062,-0.313258927449,0.0500075999301,0.617453138605,0.71980532496
1341848032603043973,813,1341848032603043973,map,2.72704724175,-2.41092154847,1.08557648633,-0.310469462822,0.0483005245633,0.617497832321,0.721090981291
1341848032634745913,814,1341848032634745913,map,2.71992737515,-2.41543473429,1.08554977798,-0.308699547405,0.0468539771076,0.618209000594,0.721336898256
1341848032702791344,815,1341848032702791344,map,2.70336022656,-2.42357054969,1.08088056021,-0.306619944287,0.0426387041471,0.618220537297,0.722474563158
1341848032738725289,816,1341848032738725289,map,2.69668106092,-2.42935820378,1.07827067911,-0.304808852366,0.0425522350694,0.618942448337,0.722627911141
1341848032838780883,817,1341848032838780883,map,2.67168955975,-2.44329428072,1.06646219693,-0.304033699992,0.0409651496401,0.619612902203,0.722471604084
1341848032902706593,818,1341848032902706593,map,2.65832935408,-2.44442237636,1.05764332195,-0.302713624927,0.0428073689395,0.618969330183,0.723470082049
1341848032938844878,819,1341848032938844878,map,2.64987629872,-2.44730536215,1.05525939248,-0.302758447935,0.043052245254,0.617957919822,0.724300920378
1341848033039237921,820,1341848033039237921,map,2.62822671977,-2.44857999391,1.04224323434,-0.301628628279,0.0420848114383,0.614493046642,0.727768750385
1341848033070841102,821,1341848033070841102,map,2.62229276168,-2.44827021063,1.03890878722,-0.301033600777,0.0406182069482,0.613460665302,0.728968406728
1341848033139110331,822,1341848033139110331,map,2.60674823864,-2.44879303434,1.03339403309,-0.296193813233,0.0395349938874,0.610655011302,0.73335302545
1341848033170740625,823,1341848033170740625,map,2.60154004137,-2.45236384114,1.02807703043,-0.293963711609,0.0410538788553,0.609713264028,0.734948752112
1341848033238727481,824,1341848033238727481,map,2.58836167887,-2.44974232866,1.0225456883,-0.291532630804,0.0438168599441,0.605780876737,0.738998206247
1341848033338836099,825,1341848033338836099,map,2.56766791387,-2.45346624384,1.01211669287,-0.288929418708,0.0455887335368,0.599316709084,0.745158348097
1341848033406805337,826,1341848033406805337,map,2.55271446996,-2.45305362008,1.00387051597,-0.289741430447,0.045666554629,0.595169085947,0.74815656316
1341848033506806789,827,1341848033506806789,map,2.53306504765,-2.45514274316,0.994248099846,-0.287103498912,0.0464455023676,0.591917874597,0.751696498231
1341848033542875621,828,1341848033542875621,map,2.52616080232,-2.45538939462,0.992200144964,-0.285714828921,0.0467435758093,0.591443684344,0.752579863804
1341848033606870253,829,1341848033606870253,map,2.51568939317,-2.45788456786,0.986624490593,-0.282756101805,0.0487232743029,0.588305660484,0.756023465564
1341848033642933862,830,1341848033642933862,map,2.50738223526,-2.4575933016,0.984840693955,-0.281010968815,0.0500475385531,0.587547810411,0.757176104978
1341848033742796865,831,1341848033742796865,map,2.48941041254,-2.45683252848,0.979920589264,-0.277349295936,0.0524975783421,0.585039636149,0.760296003956
1341848033842773886,832,1341848033842773886,map,2.47224224359,-2.4612811524,0.972600200357,-0.273831035125,0.0519808230711,0.58162201828,0.764218805275
1341848033874878256,833,1341848033874878256,map,2.46689300919,-2.46383302071,0.970648222485,-0.273060120436,0.0524489076212,0.580821875308,0.765070741361
1341848033942751943,834,1341848033942751943,map,2.45778731787,-2.47050805809,0.96746986894,-0.270068510679,0.0490494127671,0.574636203046,0.771006095488
1341848034010755326,835,1341848034010755326,map,2.4497357214,-2.47044827388,0.961799863791,-0.264470065948,0.0420956910199,0.568538351775,0.777848111242
1341848034110771234,836,1341848034110771234,map,2.4387530724,-2.47271866927,0.963703503859,-0.253263106474,0.042213240352,0.559399000573,0.788129817114
1341848034142710232,837,1341848034142710232,map,2.43833937339,-2.47947698584,0.963760460337,-0.248659970042,0.039665273423,0.554981039064,0.792837272982
1341848034278739528,838,1341848034278739528,map,2.41960832873,-2.48776671648,0.958768199591,-0.237051630208,0.0387827291807,0.542513352358,0.804973107179
1341848034318061235,839,1341848034318061235,map,2.41775909932,-2.49000451579,0.959680601518,-0.233110472937,0.0389302333358,0.541147151875,0.807033900158
1341848034386161526,840,1341848034386161526,map,2.40589878079,-2.49941684672,0.958227057253,-0.227392641049,0.0415388519594,0.537098401148,0.811228954626
1341848034485677805,841,1341848034485677805,map,2.38723733157,-2.51274937267,0.949089060621,-0.223455379816,0.0415950318359,0.533161022028,0.814909114392
1341848034521746568,842,1341848034521746568,map,2.37994322615,-2.52115697697,0.946727521945,-0.223871231134,0.0402790358256,0.53364045675,0.814547192564
1341848034585773691,843,1341848034585773691,map,2.36336163551,-2.53043708842,0.937922242048,-0.223999989225,0.0414164389066,0.532192424499,0.815401691253
1341848034653784254,844,1341848034653784254,map,2.34808677688,-2.54063753962,0.925519486898,-0.227299482953,0.0427382145181,0.530917190449,0.81525169303
1341848034715163563,845,1341848034715163563,map,2.33345825382,-2.54933171122,0.914039692247,-0.22675948251,0.0441978373071,0.5289022567,0.816632777824
1341848034782798089,846,1341848034782798089,map,2.3194990315,-2.55709631047,0.902261981447,-0.22746723378,0.0470858294746,0.52772673778,0.817034931054
1341848034846850667,847,1341848034846850667,map,2.30722964532,-2.56636845172,0.888319258681,-0.228242023879,0.0459334503517,0.527447587996,0.817064704203
1341848034914816029,848,1341848034914816029,map,2.29608343338,-2.57044752841,0.878773928664,-0.228598465159,0.0472866323988,0.524311548975,0.818904221912
1341848035014942111,849,1341848035014942111,map,2.28538630784,-2.576833975,0.86910534648,-0.229695922758,0.0490285118838,0.519361531775,0.821644437382
1341848035050944630,850,1341848035050944630,map,2.27975283712,-2.57683645446,0.862857450163,-0.22881453435,0.0498435486054,0.517943780735,0.822735541164
1341848035084294676,851,1341848035084294676,map,2.27575799481,-2.57718379121,0.860203860908,-0.228838008137,0.0495170817969,0.517165170249,0.823238368269
1341848035118886069,852,1341848035118886069,map,2.27092443883,-2.58067589746,0.856015217394,-0.229573212175,0.0497376308334,0.515502441987,0.82406282984
1341848035218946251,853,1341848035218946251,map,2.25411927926,-2.58268887284,0.842995385502,-0.230158482181,0.0509465991293,0.512410629404,0.825752296048
1341848035284261213,854,1341848035284261213,map,2.24213479283,-2.58190286567,0.832209448738,-0.228089958832,0.0503989019767,0.511819454195,0.826725934065
1341848035319913712,855,1341848035319913712,map,2.23680414073,-2.58126181679,0.828137663507,-0.225804005068,0.0503569354837,0.511278008454,0.827690478354
1341848035350991042,856,1341848035350991042,map,2.22673622212,-2.57882902116,0.825363538514,-0.224330498525,0.0504986957213,0.510179143089,0.828759885732
1341848035422708938,857,1341848035422708938,map,2.21222707651,-2.57989049414,0.819290705242,-0.219946595863,0.0509737005894,0.509826166369,0.830121952471
1341848035518623357,858,1341848035518623357,map,2.19019934765,-2.57795256463,0.811324785011,-0.213811292872,0.0531165817039,0.509175605443,0.831987724598
1341848035586716439,859,1341848035586716439,map,2.17726973896,-2.5738741618,0.806338286401,-0.206800883795,0.0547416278258,0.508498162522,0.834066163638
1341848035654654158,860,1341848035654654158,map,2.1644023573,-2.57263609082,0.800539711977,-0.201773059891,0.0567927785089,0.50492106375,0.837327247567
1341848035718790698,861,1341848035718790698,map,2.14848093252,-2.5694233216,0.79126561462,-0.19718814551,0.0613236003153,0.498703461548,0.841814178147
1341848035786729140,862,1341848035786729140,map,2.13596108056,-2.56388485761,0.784165276462,-0.194558695745,0.0621949436015,0.494535293649,0.844815685003
1341848035818783925,863,1341848035818783925,map,2.12853495158,-2.56108711799,0.782383868315,-0.19402314756,0.0635617134864,0.490695377735,0.847073187459
1341848035854700486,864,1341848035854700486,map,2.12165196866,-2.55556282881,0.77961536756,-0.190971347525,0.0642429357135,0.488419233674,0.849028535682
1341848035886689172,865,1341848035886689172,map,2.1148402305,-2.55424626894,0.777835346781,-0.188396340764,0.0653947055554,0.487974306606,0.849771396491
1341848035954633173,866,1341848035954633173,map,2.10132434362,-2.55037725576,0.771390650868,-0.182436184975,0.0669397796685,0.487333756642,0.8513177555
1341848035986740765,867,1341848035986740765,map,2.09062017487,-2.5513638603,0.768405724918,-0.179288896588,0.068771185225,0.487414302204,0.8517941676
1341848036022778682,868,1341848036022778682,map,2.08156456925,-2.55078991865,0.762266147614,-0.176930738649,0.0714862874524,0.486678230392,0.85248433098
1341848036054910597,869,1341848036054910597,map,2.0777251932,-2.54540218919,0.76045624109,-0.175574742459,0.073689845697,0.486117838174,0.852896699471
1341848036087013020,870,1341848036087013020,map,2.06999205069,-2.5471772082,0.756907285362,-0.174974407998,0.0731378113252,0.484982165001,0.853713726213
1341848036122737389,871,1341848036122737389,map,2.06274220657,-2.54716470358,0.754088310175,-0.176681332747,0.0735652302789,0.482646172484,0.854648776284
1341848036190835013,872,1341848036190835013,map,2.05211577732,-2.53916393984,0.75061740759,-0.175854386247,0.0753868569651,0.479725179624,0.856303569761
1341848036254692216,873,1341848036254692216,map,2.04011328964,-2.53360067112,0.743899941024,-0.177718119208,0.0729611410649,0.476883037264,0.857715287111
1341848036290758055,874,1341848036290758055,map,2.03432393802,-2.53280089849,0.740962044201,-0.178916506646,0.0703934268851,0.474380799487,0.859067237538
1341848036390842719,875,1341848036390842719,map,2.01192380268,-2.52487418929,0.731288502519,-0.178015927205,0.070621671549,0.469544414975,0.861888020163
1341848036458823098,876,1341848036458823098,map,1.99503076677,-2.52088781357,0.725642146807,-0.177322900736,0.0699558158351,0.464841040232,0.864630313922
1341848036491204887,877,1341848036491204887,map,1.98786204313,-2.51979962976,0.720026366373,-0.177226222568,0.0679615622334,0.465089561783,0.864675543743
1341848036522725697,878,1341848036522725697,map,1.98214475868,-2.51469671686,0.715659686884,-0.176983551787,0.0669640329898,0.464397791978,0.865174741391
1341848036590722639,879,1341848036590722639,map,1.96545776929,-2.51278142164,0.706671524249,-0.174303439455,0.0635439762047,0.461813874452,0.867357142927
1341848036626801824,880,1341848036626801824,map,1.95620991179,-2.51089282944,0.704506360329,-0.170415155357,0.0645302508416,0.459747746991,0.86915277194
1341848036658669783,881,1341848036658669783,map,1.9456483896,-2.50590632605,0.702003687414,-0.168004406716,0.0631702544538,0.458371482251,0.870447945799
1341848036726752443,882,1341848036726752443,map,1.92511400946,-2.50317006952,0.691855118091,-0.16219315237,0.0586520546917,0.455664554258,0.873282970277
1341848036790719595,883,1341848036790719595,map,1.9065129831,-2.49808286418,0.683912005317,-0.155674749356,0.0562909525448,0.453386350089,0.87580678564
1341848036926845562,884,1341848036926845562,map,1.86024544902,-2.49379223563,0.671310617394,-0.146555238818,0.0560124905568,0.444090113851,0.882138383101
1341848036994835815,885,1341848036994835815,map,1.83632933315,-2.48113385689,0.653533408813,-0.141769407419,0.0509343419014,0.438633879001,0.885950024161
1341848037061041744,886,1341848037061041744,map,1.81498036086,-2.47644683059,0.649813309071,-0.140453162146,0.0463299294175,0.437266687005,0.887087531012
1341848037194723741,887,1341848037194723741,map,1.76612360299,-2.46289818835,0.631761531603,-0.132828909786,0.0290580063438,0.440198832461,0.887545540474
1341848037227031808,888,1341848037227031808,map,1.75706203774,-2.46225961121,0.62645865233,-0.129612073077,0.0263594628984,0.441608593444,0.887405054292
1341848037295191591,889,1341848037295191591,map,1.73275333892,-2.45822426522,0.61930230675,-0.127250556642,0.0175247886413,0.44792303251,0.884796664134
1341848037395057287,890,1341848037395057287,map,1.70346932021,-2.44856505851,0.609877579619,-0.127860249067,0.0135158296154,0.448041536246,0.884719089522
1341848037430946417,891,1341848037430946417,map,1.69406777991,-2.44620356914,0.605492349197,-0.128972133543,0.0109055638685,0.447328633739,0.884954428159
1341848037530725572,892,1341848037530725572,map,1.6643450776,-2.43484580697,0.590346116984,-0.130395976471,0.00735195055746,0.446844747869,0.885026897396
1341848037562957417,893,1341848037562957417,map,1.65506862966,-2.42914999374,0.587699761125,-0.132525195806,0.00743853789213,0.445193653891,0.885541840662
1341848037662668770,894,1341848037662668770,map,1.63005465529,-2.41431237843,0.575475719828,-0.136155954168,0.00569987385006,0.439867163376,0.887663191245
1341848037730964476,895,1341848037730964476,map,1.61828880057,-2.40024951253,0.567488030372,-0.135881250171,0.00415347591721,0.435559888148,0.889835166387
1341848037769763957,896,1341848037769763957,map,1.61035468781,-2.39894881693,0.561176923547,-0.13439953032,0.00440269836691,0.433379008523,0.891122904686
1341848037837791913,897,1341848037837791913,map,1.59669993272,-2.38529122115,0.554104463033,-0.131470721585,0.00293168530758,0.429488457662,0.893446426921
1341848037898920908,898,1341848037898920908,map,1.58448321918,-2.37430436807,0.544863831678,-0.127535903556,0.0107547231194,0.423811482722,0.896662010928
1341848037998628697,899,1341848037998628697,map,1.56480962145,-2.35516724149,0.529800825771,-0.125568685062,0.0185228740517,0.412912673771,0.901882763973
1341848038030908372,900,1341848038030908372,map,1.55677091083,-2.35141503465,0.524684090144,-0.125484774456,0.0195643372649,0.410047754524,0.903178625594
1341848038134662479,901,1341848038134662479,map,1.540561642,-2.33327337031,0.511800161935,-0.124016470708,0.0273763702173,0.399591096262,0.907853188317
1341848038166673587,902,1341848038166673587,map,1.53625581863,-2.32857626022,0.506842850076,-0.125156039041,0.0277070072711,0.39656100991,0.909014661257
1341848038198710670,903,1341848038198710670,map,1.52810733891,-2.32169040465,0.503196611606,-0.124056222922,0.0295612657351,0.392821138806,0.910729231999
1341848038274093487,904,1341848038274093487,map,1.51895973964,-2.31029428786,0.49830603541,-0.122446204917,0.0299949720042,0.389919831741,0.912178576048
1341848038306525385,905,1341848038306525385,map,1.5107379222,-2.30459006839,0.492862139422,-0.122785516738,0.0298352360378,0.387192428797,0.913299290827
1341848038341932542,906,1341848038341932542,map,1.50866743283,-2.29818718719,0.490663995503,-0.122295425889,0.0298443803646,0.386001573315,0.913868663483
1341848038473889282,907,1341848038473889282,map,1.47753048181,-2.27901611334,0.478910849238,-0.121340864701,0.0269440221613,0.378744215912,0.917116800602
1341848038510184590,908,1341848038510184590,map,1.4727161056,-2.27343952277,0.483225200364,-0.123213820396,0.0270366628185,0.377333395159,0.917445849567
1341848038566862112,909,1341848038566862112,map,1.454642899,-2.26361641465,0.47639942207,-0.121187330377,0.0198341153717,0.374671734766,0.918989296001
1341848038602989352,910,1341848038602989352,map,1.4476221278,-2.25705725179,0.47794778417,-0.121714844583,0.0198896737155,0.374138774322,0.919135500678
1341848038670685092,911,1341848038670685092,map,1.42957702511,-2.25261382913,0.467256012562,-0.121433913787,0.017146783313,0.374298050876,0.919163069023
1341848038702867897,912,1341848038702867897,map,1.42139522688,-2.24390483017,0.466270351337,-0.122017288122,0.0177751408603,0.373414715944,0.919433131853
1341848038734794425,913,1341848038734794425,map,1.41470049574,-2.23966879448,0.460531377655,-0.122500210379,0.014164235335,0.373435301115,0.919423269902
1341848038802800508,914,1341848038802800508,map,1.39113031593,-2.23466905989,0.449315130121,-0.120117865155,0.0147516076116,0.371268892042,0.920604970537
1341848038871141405,915,1341848038871141405,map,1.37457320669,-2.23102129613,0.439504533766,-0.117737365512,0.0122511055813,0.368620840846,0.922012197663
1341848038938766873,916,1341848038938766873,map,1.3566340463,-2.22527682534,0.431102128669,-0.112363226897,0.0156939976092,0.365748425377,0.923772854593
1341848039002633738,917,1341848039002633738,map,1.33779951631,-2.22526628767,0.417980564872,-0.111348455408,0.0172859104488,0.3584035482,0.926741395891
1341848039070804791,918,1341848039070804791,map,1.31899850765,-2.2228961952,0.408415231807,-0.106084396224,0.0167181176652,0.353823233952,0.929126329715
1341848039138655903,919,1341848039138655903,map,1.30246620639,-2.21700886408,0.401960411998,-0.102574828927,0.017726521267,0.350932449845,0.93059690059
1341848039206813903,920,1341848039206813903,map,1.28425138547,-2.21341723206,0.394486086943,-0.100433502135,0.0195863541594,0.34676431135,0.93235401215
1341848039238881049,921,1341848039238881049,map,1.27615583554,-2.21046144573,0.39057678635,-0.0989065208616,0.0176552890574,0.345881008191,0.932883770774
1341848039306747084,922,1341848039306747084,map,1.25901208339,-2.20939807421,0.382580093543,-0.0974164454814,0.0191319901321,0.34268773202,0.934189020103
1341848039374765590,923,1341848039374765590,map,1.24338829963,-2.20782861061,0.368468659508,-0.0956743544112,0.017211768219,0.340773373316,0.935106233424
1341848039507121381,924,1341848039507121381,map,1.21939956308,-2.19608820465,0.351132299705,-0.0969838362631,0.0185340116793,0.332769340816,0.937824709608
1341848039538659256,925,1341848039538659256,map,1.21239339771,-2.19305569234,0.348329307145,-0.0968749060272,0.0174574129697,0.33072228649,0.938580446716
1341848039606721436,926,1341848039606721436,map,1.20106963126,-2.1825614278,0.341264777802,-0.0973376069733,0.0169091811735,0.329469659336,0.938983077945
1341848039707167668,927,1341848039707167668,map,1.18063834352,-2.16949449987,0.331604970409,-0.0982462619088,0.0139396478588,0.325346861468,0.940373744865
1341848039806875517,928,1341848039806875517,map,1.16600098656,-2.15034887021,0.323594841948,-0.101067316502,0.0104999613375,0.319260564125,0.942203714222
1341848039881802718,929,1341848039881802718,map,1.15650812417,-2.13792310231,0.315352723177,-0.100041725553,0.00928100984186,0.314889056662,0.943795737049
1341848039943366615,930,1341848039943366615,map,1.14362074582,-2.12756942603,0.311160573831,-0.0958349742136,0.00978196493816,0.311897415889,0.945219539769
1341848039974814792,931,1341848039974814792,map,1.13868891678,-2.11843984916,0.305200653958,-0.0928692488858,0.0113286391737,0.310756619675,0.945873818952
1341848040010706927,932,1341848040010706927,map,1.13366524691,-2.10815163846,0.303978938815,-0.0906668977509,0.0110116700473,0.309524126522,0.946495159684
1341848040078715510,933,1341848040078715510,map,1.11944486953,-2.09691999915,0.296834450694,-0.0870850105974,0.0156161306985,0.305197470274,0.94817025946
1341848040142744340,934,1341848040142744340,map,1.11129625539,-2.08490178873,0.287630167394,-0.0844649696925,0.0191667242608,0.298840830027,0.950364390872
1341848040211028895,935,1341848040211028895,map,1.09667649487,-2.06877893914,0.280513595836,-0.0822306425897,0.0250005558287,0.292813480457,0.952298986808
1341848040310719476,936,1341848040310719476,map,1.08423638882,-2.04998044041,0.274693683557,-0.077007012951,0.0278506510162,0.284940697096,0.955040874418
1341848040378808683,937,1341848040378808683,map,1.0751959595,-2.03569592753,0.271111185825,-0.0715604960829,0.0327719581669,0.280919713778,0.95649840644
1341848040446720431,938,1341848040446720431,map,1.06282413779,-2.02069543381,0.263726781214,-0.0639330844503,0.0290904173987,0.277296560591,0.958213403011
1341848040478679731,939,1341848040478679731,map,1.05428455516,-2.01089169782,0.264241263379,-0.0605038138906,0.0301161350724,0.275451660356,0.958936227806
1341848040546684506,940,1341848040546684506,map,1.04058124819,-1.99905709851,0.265219837099,-0.0580309276158,0.0272486476777,0.27336106769,0.959772706617
1341848040614917380,941,1341848040614917380,map,1.03029922679,-1.98690770036,0.262974591666,-0.0561252498458,0.0279285075451,0.270859558642,0.960575384436
1341848040714652720,942,1341848040714652720,map,1.02231906667,-1.97088315766,0.262912021159,-0.0553318361518,0.0209004835962,0.25814359178,0.964294269407
1341848040778773795,943,1341848040778773795,map,1.01370365365,-1.95756299295,0.263592618738,-0.0519770583977,0.0138973271785,0.244148802147,0.968244089802
1341848040846907719,944,1341848040846907719,map,1.00757766851,-1.94847882311,0.264139294281,-0.0500991752358,0.012375472502,0.232735908978,0.971169871863
1341848040882826806,945,1341848040882826806,map,1.00503335868,-1.94475467045,0.262389435328,-0.0496280664518,0.00961795743435,0.228311272551,0.972274920004
1341848040984484437,946,1341848040984484437,map,0.99252642165,-1.92532073293,0.255660543416,-0.0391993310287,0.0100736364889,0.213444805141,0.976116414229
1341848041094347040,947,1341848041094347040,map,0.978846825436,-1.90482533363,0.246436243759,-0.0259100066601,0.015290723048,0.201665376439,0.97899230798
1341848041218697979,948,1341848041218697979,map,0.968239158258,-1.88493697648,0.232809936353,-0.00934225671817,0.0287212399931,0.187866798203,0.981730048785
1341848041250726389,949,1341848041250726389,map,0.962681800826,-1.87629786332,0.232218000774,-0.00731871796307,0.0304138547432,0.184598807075,0.982315998174
1341848041319290499,950,1341848041319290499,map,0.962025510079,-1.863496936,0.225784159234,-0.00383375040989,0.0356579977253,0.180287257569,0.982959979141
1341848041355464593,951,1341848041355464593,map,0.958467609059,-1.861505689,0.223157586405,-0.00267655716537,0.0345396256248,0.177777308583,0.983460766239
1341848041482801271,952,1341848041482801271,map,0.946255804192,-1.83302938208,0.208126865021,0.000925713792175,0.0390393129461,0.16228821338,0.9859703926
1341848041550729976,953,1341848041550729976,map,0.946597442849,-1.82046761033,0.205609929404,0.00240447446417,0.0400792397882,0.152486034272,0.987489692417
1341848041618742627,954,1341848041618742627,map,0.949618978856,-1.80226728272,0.203346483692,0.00309981394499,0.0405127863807,0.145092944449,0.988583401716
1341848041686781153,955,1341848041686781153,map,0.953654855933,-1.78039094818,0.203528905147,0.00479699176204,0.0400301627964,0.140191764621,0.989303211251
1341848041750775818,956,1341848041750775818,map,0.948926419635,-1.75536652505,0.202141868911,0.010809081545,0.0392536328543,0.133806123893,0.99017080972
1341848041786710720,957,1341848041786710720,map,0.947933798114,-1.74403455794,0.20542164522,0.014464570963,0.0393798771951,0.132329012586,0.990317640246
1341848041886710255,958,1341848041886710255,map,0.946538386537,-1.70701948439,0.200902966445,0.0242003006086,0.0374781745772,0.128905738693,0.990652834865
1341848041994975170,959,1341848041994975170,map,0.943755912512,-1.67325902603,0.205912978359,0.0337429571479,0.036038501003,0.123188024461,0.991154553543
1341848042054626747,960,1341848042054626747,map,0.949800093774,-1.65471831738,0.212118217804,0.0410213849525,0.0348258671594,0.120451369968,0.991259741874
1341848042154787841,961,1341848042154787841,map,0.951413986859,-1.62460757891,0.221433970779,0.0478017749176,0.0376566377691,0.113487581397,0.991674110174
1341848042254762481,962,1341848042254762481,map,0.955646971315,-1.59249763311,0.219491151522,0.0489791052056,0.0366329297938,0.103128989989,0.992785716502
1341848042290694194,963,1341848042290694194,map,0.955718259791,-1.58410843305,0.22273789155,0.0458113542293,0.037983405554,0.0979882318179,0.99340671062
1341848042429736841,964,1341848042429736841,map,0.963804207198,-1.54208964224,0.223705912973,0.055001367098,0.0435249786983,0.0843013185826,0.99396866396
1341848042522712749,965,1341848042522712749,map,0.971174661028,-1.51560662178,0.218674332066,0.0629855407616,0.0473355568017,0.0730279352774,0.994212801848
1341848042622729936,966,1341848042622729936,map,0.971756206236,-1.48562026649,0.216122024041,0.0723427164882,0.0478319420045,0.0583429652404,0.994522366181
1341848042729777563,967,1341848042729777563,map,0.968137278508,-1.4563806598,0.215106144452,0.0870871454473,0.0460158252844,0.0445192036283,0.994141037197
1341848042861725862,968,1341848042861725862,map,0.962792170814,-1.42531438701,0.207015090144,0.0998308674913,0.0489296887103,0.0238926506573,0.993513377827
1341848042929860127,969,1341848042929860127,map,0.963666185743,-1.40340823525,0.209461242885,0.103239869591,0.0514907735955,0.0140358563656,0.993223655511
1341848042965708164,970,1341848042965708164,map,0.964280303405,-1.39987960478,0.209110634033,0.104906717789,0.0494457011833,0.0104594262441,0.993197017637
1341848043097862500,971,1341848043097862500,map,0.960496163858,-1.36687318841,0.204558668254,0.115201041106,0.0521586457331,-0.00363306759666,0.99196521642
1341848043165792193,972,1341848043165792193,map,0.965797445389,-1.34805765778,0.198273255984,0.119265529804,0.0516948127392,-0.0102651937075,0.991462562831
