%time,field.header.seq,field.header.stamp,field.header.frame_id,field.pose.position.x,field.pose.position.y,field.pose.position.z,field.pose.orientation.x,field.pose.orientation.y,field.pose.orientation.z,field.pose.orientation.w
1311878194338155262,0,1311878194338155262,map,-0.0,0.0,0.0,0.0,0.0,0.0,1.0
1311878194374269995,1,1311878194374269995,map,0.000767877582968,0.000165345122624,-0.000171245216885,-0.000103112521942,-3.66732622755e-05,-0.000108937893758,0.999999992549
1311878194406573521,2,1311878194406573521,map,0.000481585011343,0.000237396575749,-0.000309494385306,-7.14387034991e-05,-6.1950985596e-05,-0.00015210722858,0.999999985099
1311878194439904505,3,1311878194439904505,map,-0.00048124901764,8.49654209223e-07,0.000163536686435,-6.24322674412e-05,5.68239320273e-05,-4.90247725793e-06,1.0
1311878194474341092,4,1311878194474341092,map,0.000490583134295,4.24309042001e-05,-0.000223737164471,-0.000111369450519,-5.04457082811e-05,-9.11107431355e-05,0.999999985099
1311878194506276027,5,1311878194506276027,map,0.00045097014657,-8.08082497509e-05,-0.000512332222446,-4.76406064813e-05,-0.000161575417812,-2.95711201802e-05,0.999999985099
1311878194538257210,6,1311878194538257210,map,0.000563153217073,0.000277007708627,-1.16641393854e-05,-1.52354930375e-05,-1.27008531382e-05,-0.000142394283405,0.999999985099
1311878194574202488,7,1311878194574202488,map,0.000348407232815,-3.26848185417e-05,-0.000110348498329,-2.86880440399e-05,-4.26379519922e-05,-5.21770271007e-05,1.0
1311878194606200774,8,1311878194606200774,map,0.000631444830468,3.24103324436e-05,9.07665637609e-05,-0.000137665917019,1.00257237396e-05,-0.000170410324776,0.999999970198
1311878194638183720,9,1311878194638183720,map,-8.28805718897e-05,5.73828186628e-05,0.000297653010929,-5.56910707245e-05,4.93105450149e-05,-0.000219887776625,0.999999970198
1311878194674335098,10,1311878194674335098,map,0.000394521309925,-0.000411416136365,-0.00099406679335,-0.000414790874096,-0.000105833659841,-0.000302545344868,0.99999986589
1311878194706671278,11,1311878194706671278,map,0.000714543950091,-0.000256774307622,-0.000607683186832,-0.000302273841436,5.55971637912e-05,-0.000941787378177,0.999999508262
1311878194738262056,12,1311878194738262056,map,2.15300541116e-05,-0.000184227933683,3.98225179172e-05,-0.000100378693651,2.63956490028e-05,-0.00105075380723,0.999999448657
1311878194774174728,13,1311878194774174728,map,-1.39862151536e-05,-9.93843547692e-05,-0.000337640662844,-0.000155096128961,-4.5092282829e-05,-0.00168771830466,0.999998562037
1311878194806388235,14,1311878194806388235,map,-0.000380322758925,-0.000720808853732,-0.000737307828095,-0.000532395540255,-0.000135583661228,-0.00240283838814,0.999996967609
1311878194838266680,15,1311878194838266680,map,-0.000246010502546,-0.00102958758177,-0.00122113530966,-0.000400054233075,-0.000193007623386,-0.00372378297793,0.999992959177
1311878194874122449,16,1311878194874122449,map,-0.000112138440604,-0.00162274074981,-0.000780250035648,-0.000341825117063,2.49398160826e-05,-0.00530649961388,0.999985858698
1311878194906161538,17,1311878194906161538,map,-0.00031585179788,-0.00196659097658,-0.00154062475894,-0.000459113941586,-0.000193112964901,-0.00762004199556,0.999970845453
1311878194938234661,18,1311878194938234661,map,8.6166227349e-05,-0.00221186225383,-0.000815559057719,-0.000177205646798,-2.76263881853e-05,-0.0105063080146,0.999944789674
1311878194974214261,19,1311878194974214261,map,-0.000846300613244,-0.00270275285019,-0.00367007066316,-0.000311673517658,-5.42386782146e-05,-0.0139063806771,0.999903256982
1311878195006349315,20,1311878195006349315,map,0.00089713654619,-0.00325193560653,-0.000539965106732,0.000868703967075,0.000230545574171,-0.0175707779901,0.99984521711
1311878195038169633,21,1311878195038169633,map,-0.000768567819522,-0.00341171942087,-0.00232556414076,0.0010083410437,-0.000971277282952,-0.0206621569543,0.999785534392
1311878195074121004,22,1311878195074121004,map,-0.000428247511043,-0.0029991934671,-0.00133072527306,0.00139742044069,5.69291913898e-06,-0.0237167784546,0.999717739622
1311878195106255285,23,1311878195106255285,map,0.000920296076634,-0.00338597746164,-0.00131862076021,0.00127757979928,-5.30592362785e-05,-0.0270019239883,0.999634564206
1311878195138440919,24,1311878195138440919,map,-0.00207221630067,-0.00379770359454,-0.0017713095606,0.00172923619402,-0.00026301976788,-0.0311470291674,0.999513276681
1311878195174269347,25,1311878195174269347,map,-0.00129256811179,-0.00375178332829,-0.00172992025185,0.002040285201,1.15554605733e-05,-0.0357479803782,0.999358753898
1311878195238271491,26,1311878195238271491,map,-0.00080978623971,-0.00533335816572,-0.00146925763848,0.00329074040557,-0.000593578735579,-0.044245716023,0.999015084658
1311878195274164316,27,1311878195274164316,map,-0.0019586798222,-0.00511806808204,-0.00258587012106,0.00304704931306,0.000367406547261,-0.0495137298597,0.998768726443
1311878195306470224,28,1311878195306470224,map,4.4651058282e-05,-0.00538672018765,-0.0013132439359,0.00409850578204,-0.000510329986111,-0.0549374431134,0.998481260305
1311878195338212940,29,1311878195338212940,map,-0.00149567166742,-0.00567322092413,-0.0016991234154,0.00482868050401,-0.00182197047963,-0.0598291253627,0.99819529376
1311878195374268888,30,1311878195374268888,map,-0.00101114393178,-0.00609402739396,-0.00204136123766,0.0050894504163,-0.00133251650641,-0.0641686645283,0.997925200389
1311878195406028511,31,1311878195406028511,map,0.001606767235,-0.0061129030458,-0.000952277308437,0.00548650106544,-0.00095955165436,-0.0688602955558,0.997610769527
1311878195438050363,32,1311878195438050363,map,-3.16971333915e-05,-0.00681152437077,-0.0016688862832,0.0061113166955,-0.00162796719643,-0.0732109841827,0.997296418829
1311878195474232510,33,1311878195474232510,map,-0.00188100025027,-0.00770999154821,-0.00108756772008,0.00655377166295,-0.00123717454093,-0.0776611229758,0.996957501672
1311878195506356381,34,1311878195506356381,map,-0.00022879545194,-0.00827169988703,-0.00086456542869,0.0071771435178,-0.00145297921816,-0.0824874460585,0.996565202331
1311878195538378202,35,1311878195538378202,map,-0.00116145029227,-0.00934502593718,-0.0010570965343,0.00815158536629,-0.00158320068885,-0.0870538736745,0.996168993932
1311878195574458744,36,1311878195574458744,map,-0.000727575807978,-0.00917045617558,-0.00106784395699,0.00851067652321,-0.00168240875828,-0.0920641244059,0.995715290054
1311878195606205706,37,1311878195606205706,map,-0.000462002765187,-0.00999994762975,-0.00109183482666,0.00874530682271,-0.00193496529376,-0.0969225002125,0.995251624972
1311878195638286681,38,1311878195638286681,map,-0.000968545299407,-0.0104691002824,-0.00192410817892,0.00924914015181,-0.00234842841273,-0.101897218862,0.994749156516
1311878195674186482,39,1311878195674186482,map,-0.00111319496378,-0.00978721832337,-0.0016051070399,0.00998214340855,-0.00271592090172,-0.107081289031,0.994196449916
1311878195706186020,40,1311878195706186020,map,-0.000278061052698,-0.00991940931409,-0.00153720957741,0.010398182429,-0.00295469347639,-0.112121256236,0.993635727652
1311878195738201463,41,1311878195738201463,map,-5.54884809921e-05,-0.0104519034702,-0.00168354621689,0.0110805718169,-0.0032662847898,-0.116637889872,0.993107316788
1311878195774487932,42,1311878195774487932,map,-3.28210587245e-05,-0.0110972688491,-0.00232996965326,0.0112354337775,-0.00333791051852,-0.121201749728,0.992558687719
1311878195806203500,43,1311878195806203500,map,0.00238477570318,-0.0118881044167,-0.00194255992248,0.0117133573576,-0.00356642993375,-0.126117410761,0.991939754043
1311878195838010192,44,1311878195838010192,map,0.00120561210223,-0.0122269184509,-0.00214919245515,0.0123689555019,-0.00347866374734,-0.130913143934,0.991310573137
1311878195874256521,45,1311878195874256521,map,0.00143998429316,-0.0134703085217,-0.00194060798254,0.0132124351174,-0.00365529901725,-0.135683457528,0.990657392508
1311878195906202013,46,1311878195906202013,map,0.00267723566546,-0.0140584081756,-0.00377390789096,0.0139372161308,-0.00436800783146,-0.140580590877,0.989961500021
1311878195974263676,47,1311878195974263676,map,0.00167296932744,-0.0150159674152,-0.00334320506059,0.0146444647085,-0.00475311849971,-0.150443371662,0.988498731665
1311878196038129403,48,1311878196038129403,map,0.0033651812374,-0.0153814899793,-0.0032209434775,0.0163978515215,-0.00468534322829,-0.161193577183,0.986775446008
1311878196074360269,49,1311878196074360269,map,0.00389090997981,-0.0173610620976,-0.00432737064408,0.0167901241501,-0.00507125916878,-0.165706787628,0.986019086107
1311878196106326012,50,1311878196106326012,map,0.00461856245634,-0.017709211899,-0.00477787589589,0.0175546487435,-0.0050844622053,-0.170578469906,0.98517458851
1311878196138421351,51,1311878196138421351,map,0.00371389717761,-0.0214787797137,-0.00706794198946,0.01857350589,-0.0061407342714,-0.174035454682,0.984545064798
1311878196174373812,52,1311878196174373812,map,0.00218326926369,-0.022858069415,-0.00670822396136,0.0190712236447,-0.00613243591182,-0.178594015052,0.98371889562
1311878196206127085,53,1311878196206127085,map,0.0059584351583,-0.0223764513199,-0.00837980475682,0.0197633131538,-0.00701973729155,-0.184050625007,0.982692984454
1311878196238260358,54,1311878196238260358,map,0.00339557812777,-0.0220445453311,-0.00754780946571,0.0202128076692,-0.00686642817392,-0.189052885586,0.981734837581
1311878196274192713,55,1311878196274192713,map,0.00489889863236,-0.0241203746464,-0.00741637932493,0.0205248242715,-0.00707958633523,-0.193566775637,0.980846841262
1311878196306227841,56,1311878196306227841,map,0.00381808433033,-0.025860621957,-0.00765084044956,0.021540261629,-0.00690908856197,-0.197450699167,0.980051787879
1311878196338203706,57,1311878196338203706,map,0.00447635241613,-0.0252707022411,-0.00750332681257,0.0213628532452,-0.00687667148261,-0.202699109757,0.978983867944
1311878196375281344,58,1311878196375281344,map,0.00507001834363,-0.0278968915147,-0.00683983658866,0.0222001963506,-0.00680002045426,-0.20735901897,0.977989336971
1311878196406341745,59,1311878196406341745,map,0.0100338947546,-0.0273151485751,-0.00892521434067,0.0233253735911,-0.00885161505572,-0.213034742308,0.976726045265
1311878196438533093,60,1311878196438533093,map,0.00887913295704,-0.027316278271,-0.0120819374868,0.0241055495787,-0.0109122780405,-0.218184813541,0.975548683349
1311878196506414261,61,1311878196506414261,map,0.00699774359959,-0.0334768142129,-0.0103477132612,0.0242811518099,-0.0111524581086,-0.226501053059,0.973644352178
1311878196575066011,62,1311878196575066011,map,0.0115165496444,-0.0366148623079,-0.010760831235,0.0260420107482,-0.0101792720598,-0.236658203127,0.971190554703
1311878196638325535,63,1311878196638325535,map,0.0179918495103,-0.0427448582062,-0.0111637576632,0.0272599910102,-0.00933236435766,-0.246287400514,0.968768450346
1311878196706269224,64,1311878196706269224,map,0.0242313404327,-0.0429508071158,-0.0109165673667,0.0283386280788,-0.0108050036235,-0.258371062876,0.965569559067
1311878196738691817,65,1311878196738691817,map,0.0212223068522,-0.0481836273258,-0.0082068612202,0.0282309141146,-0.0100482014078,-0.262699912448,0.96441215252
1311878196774138078,66,1311878196774138078,map,0.0247171005013,-0.0516369266062,-0.0107016825781,0.0298848508869,-0.0106709739961,-0.267481926649,0.96304021451
1311878196806327550,67,1311878196806327550,map,0.0267930658581,-0.0554132494994,-0.0102611853119,0.0304039966515,-0.00999942873055,-0.272353607803,0.961664761996
1311878196838398435,68,1311878196838398435,map,0.0312779799809,-0.0547884948978,-0.0107448701015,0.0310980671943,-0.00986819818451,-0.278577438635,0.959859437127
1311878196874221926,69,1311878196874221926,map,0.0303429836894,-0.0603148579783,-0.00911228708444,0.0315311458605,-0.0092189954975,-0.282719105947,0.958640027037
1311878196906131435,70,1311878196906131435,map,0.0405307844474,-0.0577527743764,-0.0105538381478,0.0324372921921,-0.00947521632668,-0.290012235327,0.956426133347
1311878196938142909,71,1311878196938142909,map,0.0401495222191,-0.06589008634,-0.0120174689505,0.0328277594967,-0.00985134132092,-0.293301212417,0.955405516571
1311878196974342033,72,1311878196974342033,map,0.0428681251869,-0.0659776442302,-0.0104705031382,0.0334101385569,-0.00988160209787,-0.299094553321,0.953587208912
1311878197006228608,73,1311878197006228608,map,0.0441735546457,-0.067734561639,-0.00747991854098,0.0336208034726,-0.00941922519499,-0.304089156503,0.952003522751
1311878197074170040,74,1311878197074170040,map,0.0466222318509,-0.0743192031667,-0.0110820346262,0.0347498040878,-0.0105365512921,-0.31345699792,0.948907864056
1311878197106340373,75,1311878197106340373,map,0.0512213460814,-0.0749281113907,-0.00841693840266,0.0356406973429,-0.00951676276477,-0.318826621915,0.947094899946
1311878197138416918,76,1311878197138416918,map,0.0535925924452,-0.0778453571038,-0.00785321095924,0.0362528508889,-0.009546367166,-0.32328894068,0.945557436461
1311878197174156472,77,1311878197174156472,map,0.0551313748566,-0.0810320917938,-0.00621802681757,0.0366808889975,-0.00898808163787,-0.327951194824,0.943939480802
1311878197206148631,78,1311878197206148631,map,0.0557898031977,-0.0875773178241,-0.00882142214787,0.036745893668,-0.00998211884854,-0.331650056739,0.942633726881
1311878197238432641,79,1311878197238432641,map,0.0589354181239,-0.0903099742292,-0.00809341048398,0.037607128964,-0.00957964939401,-0.336573168316,0.940857287966
1311878197306064748,80,1311878197306064748,map,0.0654689998894,-0.0923064672981,-0.0073629783648,0.0387329970602,-0.0100195390489,-0.346859384433,0.937063457259
1311878197338164297,81,1311878197338164297,map,0.0646582025931,-0.0951484589522,-0.00794089120077,0.0390351753808,-0.0102621658477,-0.351392614978,0.935357785478
1311878197373956764,82,1311878197373956764,map,0.0684222168287,-0.0990688132999,-0.00748355131027,0.0395965173059,-0.0104295258319,-0.356527611391,0.933387063103
1311878197406878493,83,1311878197406878493,map,0.069400610052,-0.103095344801,-0.00934984445039,0.040723725395,-0.0105878481304,-0.361548868242,0.93140317982
1311878197438201107,84,1311878197438201107,map,0.0727395255134,-0.10681571107,-0.00732806929383,0.0416883277881,-0.00996896923446,-0.36680485443,0.929309912546
1311878197474238043,85,1311878197474238043,map,0.0768648825827,-0.109074003045,-0.00701461544964,0.042180636691,-0.00939747557005,-0.372130647767,0.927173798501
1311878197506175804,86,1311878197506175804,map,0.0794789418107,-0.112079408845,-0.00623932507588,0.0426085325002,-0.00893491839938,-0.376937913653,0.92521483562
1311878197538447951,87,1311878197538447951,map,0.0831212099846,-0.117645220474,-0.00693346631359,0.0431376864447,-0.00870461291807,-0.381494128449,0.923323124291
1311878197574810964,88,1311878197574810964,map,0.0868598818734,-0.120977466539,-0.00481341371702,0.0431784046347,-0.00845673941823,-0.386881124411,0.921079316483
1311878197606069590,89,1311878197606069590,map,0.0891143021093,-0.124357526834,-0.00523655799493,0.0438169382373,-0.00899455505376,-0.392032777142,0.918863144869
1311878197638206405,90,1311878197638206405,map,0.0886440932957,-0.125633185711,-0.00433177455105,0.0445360820802,-0.0096242635644,-0.398093201982,0.916212699204
1311878197706189612,91,1311878197706189612,map,0.0987303857633,-0.138406343243,0.000388319283779,0.0441235453107,-0.0130471718238,-0.408836924895,0.911446781994
1311878197774049536,92,1311878197774049536,map,0.106132085613,-0.147620468799,-0.00667669722131,0.0460239573517,-0.0130716266005,-0.418635820638,0.906893033414
1311878197838273866,93,1311878197838273866,map,0.119084238052,-0.161152264917,-0.00293190494281,0.0482517845539,-0.00864497190081,-0.427156563907,0.902847884077
1311878197874322095,94,1311878197874322095,map,0.124205666933,-0.166592101627,-0.00142049830194,0.0491512309598,-0.00776231911786,-0.431310986095,0.900830018906
1311878197906486237,95,1311878197906486237,map,0.127038775468,-0.172727600153,-0.000998053365261,0.049362283238,-0.00769183023048,-0.434777597099,0.899151070879
1311878197938270711,96,1311878197938270711,map,0.130646400959,-0.177552485145,0.000368650882865,0.0488375658439,-0.007641854944,-0.438921688824,0.897164562547
1311878197974018636,97,1311878197974018636,map,0.135130549567,-0.181431382125,-0.00100376930107,0.0486741086356,-0.00854740718524,-0.443425773527,0.894947679698
1311878198038635308,98,1311878198038635308,map,0.146113956677,-0.194629309215,0.002283169935,0.0486264361025,-0.00767867318599,-0.450958920153,0.891186043891
1311878198074030710,99,1311878198074030710,map,0.152515079491,-0.204058806534,-0.00241195597916,0.0480881836372,-0.00846978536755,-0.454984386263,0.889159712145
1311878198106321651,100,1311878198106321651,map,0.153444212357,-0.209513483851,0.000318771372118,0.0493456414486,-0.0088985623612,-0.45813904158,0.887465175429
1311878198238497110,101,1311878198238497110,map,0.169146676752,-0.237182838597,0.00439475519508,0.0506320628992,-0.0104387523585,-0.471751598417,0.880214658222
1311878198274148728,102,1311878198274148728,map,0.171470326251,-0.245145407228,0.00609691479301,0.0508251241685,-0.0116582818966,-0.475574459038,0.878128597822
1311878198306371028,103,1311878198306371028,map,0.174901433691,-0.251158682474,0.00371166841111,0.0508397737219,-0.0123119398057,-0.479943961183,0.875738275241
1311878198373958761,104,1311878198373958761,map,0.186023245759,-0.268668037018,0.00443924069091,0.0526514882533,-0.0107240569425,-0.488559743849,0.87087438584
1311878198438261948,105,1311878198438261948,map,0.197601494046,-0.285800284957,0.00761557589234,0.0536945353821,-0.00904397068483,-0.496605822246,0.866266569224
1311878198474218107,106,1311878198474218107,map,0.200296545263,-0.295173112126,0.00546805989104,0.054017858799,-0.0111302092123,-0.500449118754,0.864007441576
1311878198506217698,107,1311878198506217698,map,0.207132189842,-0.304487805258,0.0075571284363,0.0543021774191,-0.0106515492766,-0.504916596448,0.861392496692
1311878198538311373,108,1311878198538311373,map,0.208519243135,-0.31129519419,0.0101650458472,0.0550830682919,-0.0103128026779,-0.508293482888,0.85935860965
1311878198574542830,109,1311878198574542830,map,0.211161221077,-0.320013313661,0.010096041597,0.0551769431501,-0.0119737287747,-0.512146444839,0.857040350804
1311878198606319181,110,1311878198606319181,map,0.219213253803,-0.327780318476,0.00758058252199,0.0546377154951,-0.0118941185799,-0.516896252919,0.854219827025
1311878198638627579,111,1311878198638627579,map,0.218775760653,-0.341785294695,0.00627646953689,0.0562741021175,-0.0129913754969,-0.519577032879,0.852469446895
1311878198674048781,112,1311878198674048781,map,0.219844415229,-0.353740426659,0.00653122790707,0.0583454780585,-0.0126080123799,-0.522733671317,0.850403635874
1311878198707315826,113,1311878198707315826,map,0.22906293134,-0.3578598668,0.00961748478544,0.0570753094295,-0.0110219122194,-0.527751524702,0.847407374785
1311878198774060828,114,1311878198774060828,map,0.235617033244,-0.37099801055,0.0131920648859,0.0581660692659,-0.00989613561584,-0.535628108314,0.842390240734
1311878198806248339,115,1311878198806248339,map,0.241684119812,-0.38375711372,0.0108754694038,0.0586649066668,-0.0103668378246,-0.539540322457,0.839849507512
1311878198838460116,116,1311878198838460116,map,0.242636040637,-0.391888623791,0.013428418328,0.0600950232339,-0.00984793851341,-0.542691471373,0.837721658667
1311878198874236622,117,1311878198874236622,map,0.244670158084,-0.402244882904,0.012561097401,0.0603321208511,-0.011356846051,-0.54642302603,0.835256209783
1311878198905987380,118,1311878198905987380,map,0.246295924779,-0.410789943049,0.0132077060289,0.0617988471837,-0.0115895737075,-0.55014317599,0.832699865236
1311878198938208407,119,1311878198938208407,map,0.249673004214,-0.418077805739,0.0135850549353,0.0614592921645,-0.0124847958541,-0.554007525251,0.83014610461
1311878199006161239,120,1311878199006161239,map,0.252855607034,-0.433786722848,0.0181788796842,0.0634733620693,-0.0137562312717,-0.561028897765,0.825244491285
1311878199038251085,121,1311878199038251085,map,0.25312888716,-0.443355596029,0.0194632576886,0.0631961215207,-0.0151002173624,-0.564647696393,0.822770450777
1311878199074228078,122,1311878199074228078,map,0.257912324225,-0.450040387796,0.0177268645211,0.0639611359552,-0.0156615870775,-0.569363791034,0.819444064984
1311878199106422132,123,1311878199106422132,map,0.26122943805,-0.460109034839,0.0187065888271,0.0640023475623,-0.0163772246743,-0.57318756803,0.816756702568
1311878199138235023,124,1311878199138235023,map,0.265352644456,-0.473225712105,0.0186251724023,0.0645158574643,-0.0150232098812,-0.577394824528,0.813773436487
1311878199174805237,125,1311878199174805237,map,0.265624696688,-0.476165299682,0.0216129822559,0.063859939755,-0.01641502194,-0.581204074073,0.811082157654
1311878199207173274,126,1311878199207173274,map,0.273362746297,-0.489599817303,0.0147002233637,0.0637976013322,-0.0143713855304,-0.585519058202,0.808016561821
1311878199238265942,127,1311878199238265942,map,0.278000102556,-0.501653111161,0.0159711314218,0.0646896413782,-0.0112719664257,-0.58892781765,0.805513638412
1311878199275875720,128,1311878199275875720,map,0.280230824716,-0.509702129067,0.0236382257576,0.0645141748677,-0.00992073252467,-0.59289634241,0.802629069454
1311878199306226293,129,1311878199306226293,map,0.282038129384,-0.521278384431,0.0164329184197,0.0631177889358,-0.0118806654135,-0.597565163969,0.799243940029
1311878199374050079,130,1311878199374050079,map,0.288026856915,-0.540017137364,0.0140568203945,0.0645840890824,-0.0104625340532,-0.604315480127,0.794054303073
1311878199438009793,131,1311878199438009793,map,0.287011904354,-0.560242684818,0.0173269633713,0.0672873697489,-0.0120841700796,-0.609503699861,0.789830117716
1311878199474152307,132,1311878199474152307,map,0.290922731365,-0.572891531947,0.0175408948904,0.0688899461655,-0.0102205179322,-0.613198493666,0.786852792422
1311878199506247706,133,1311878199506247706,map,0.294878219903,-0.58667864587,0.0156768255705,0.0697801946709,-0.00983625783046,-0.616379116158,0.784289963927
1311878199538270912,134,1311878199538270912,map,0.294091723498,-0.58842443168,0.0277090183875,0.0700136008223,-0.00910422694756,-0.619928626183,0.781475346967
1311878199574176058,135,1311878199574176058,map,0.296214345345,-0.597369159047,0.0203687606074,0.0677498711181,-0.0116903190381,-0.623991189897,0.778401108572
1311878199606309215,136,1311878199606309215,map,0.299027694073,-0.609933886863,0.0219541196248,0.0681967818653,-0.00974369314342,-0.627905683759,0.775234615092
1311878199638105605,137,1311878199638105605,map,0.296209398714,-0.621981548649,0.0203870013338,0.0682112568941,-0.0104925591882,-0.631165697704,0.772571676349
1311878199674155504,138,1311878199674155504,map,0.300417173309,-0.628744680995,0.0209216111074,0.0683591946888,-0.00960198310417,-0.635724596469,0.768823172025
1311878199706000547,139,1311878199706000547,map,0.29702465815,-0.637229638665,0.0234834997706,0.0690369699994,-0.00930673189569,-0.639150085844,0.765920654938
1311878199738017100,140,1311878199738017100,map,0.300082313653,-0.64246961942,0.0255291019103,0.0707608498935,-0.0088222037696,-0.642450279751,0.763002441248
1311878199775401342,141,1311878199775401342,map,0.306393261483,-0.65499737768,0.023214016535,0.071253497459,-0.0074500829071,-0.645783804481,0.760151777225
1311878199806250345,142,1311878199806250345,map,0.302063788943,-0.671214564818,0.0200932801475,0.0727673892104,-0.00763834982356,-0.648097929117,0.758034056789
1311878199838003989,143,1311878199838003989,map,0.30612941101,-0.676211264961,0.0230156989144,0.074036527232,-0.00580941352395,-0.651561310178,0.754952105541
1311878199874440388,144,1311878199874440388,map,0.30537854696,-0.688050198405,0.0258696365317,0.0745337538401,-0.00609691370134,-0.654592915682,0.752273664646
1311878199906102879,145,1311878199906102879,map,0.311375715191,-0.68751914191,0.0209887239635,0.0748948166039,-0.00405230543356,-0.658665963871,0.74868784179
1311878199974272367,146,1311878199974272367,map,0.303450713288,-0.715409500937,0.0216678943308,0.0765897504808,-0.00549784126501,-0.663884731192,0.743882267074
1311878200006188556,147,1311878200006188556,map,0.307568272416,-0.730164113852,0.0198435246297,0.0778766900761,-0.00500209004617,-0.667445587395,0.74055829296
1311878200038184010,148,1311878200038184010,map,0.285022885404,-0.739807550479,0.0652042661257,0.0826493876325,-0.00557516648435,-0.667848792968,0.739672889487
1311878200074131720,149,1311878200074131720,map,0.298755372472,-0.740639347246,0.0223370893661,0.0645232885501,-0.019772884608,-0.67358848159,0.736019251873
1311878200106320667,150,1311878200106320667,map,0.305010381376,-0.742456604846,0.0212416538187,0.0733567786999,-0.0137277994411,-0.677397480472,0.731821691651
1311878200173964307,151,1311878200173964307,map,0.301547450711,-0.773245668941,0.0254230136725,0.0775881062749,-0.00829293557853,-0.681844406452,0.727323547548
1311878200206327188,152,1311878200206327188,map,0.305382025071,-0.785492274888,0.0210007673524,0.0792856053847,-0.00699071913581,-0.68586045144,0.723367362428
1311878200242002032,153,1311878200242002032,map,0.309614339394,-0.786386833935,0.0388727025022,0.0816054010236,-0.0062387562613,-0.688526295631,0.720578350209
1311878200274169239,154,1311878200274169239,map,0.306096807897,-0.799688055486,0.0286790161125,0.0799647553216,-0.00548781158655,-0.691449321691,0.717964726863
1311878200342065507,155,1311878200342065507,map,0.308352084907,-0.818353812511,0.0280995831102,0.0813348145143,-0.00628744790855,-0.698475601271,0.710969026719
1311878200374151344,156,1311878200374151344,map,0.301650627188,-0.827458023094,0.0328064308173,0.0828219076146,-0.00645502532363,-0.700678685443,0.708624191324
1311878200406486881,157,1311878200406486881,map,0.301322786231,-0.840468544292,0.0302634893963,0.0822646379761,-0.00736775495771,-0.704406509374,0.704974973516
1311878200442312303,158,1311878200442312303,map,0.306439190397,-0.845728828387,0.0286142989067,0.0830788496213,-0.00603278838716,-0.707917629298,0.701365919047
1311878200474507283,159,1311878200474507283,map,0.298955361027,-0.852388326766,0.0373343643166,0.0846617741449,-0.00577994154547,-0.710092044131,0.698976584674
1311878200506740192,160,1311878200506740192,map,0.300879468198,-0.860763620633,0.0322540993646,0.0827957174586,-0.00491092292806,-0.715117926179,0.694065624177
1311878200544672289,161,1311878200544672289,map,0.299811603772,-0.873088133939,0.0335033100515,0.083779858854,-0.00536270191892,-0.71869165939,0.690242340617
1311878200574557396,162,1311878200574557396,map,0.296194146343,-0.882279073868,0.0427624379596,0.0844075811519,-0.00637285817545,-0.721660272174,0.68705252287
1311878200606123756,163,1311878200606123756,map,0.298378868772,-0.887743534472,0.0310488634189,0.0795205059336,-0.0087679681382,-0.726115438055,0.682902619577
1311878200642380345,164,1311878200642380345,map,0.300585591142,-0.89698582957,0.0374053913507,0.0836568044799,-0.00860872683184,-0.729318989814,0.678985450995
1311878200674794841,165,1311878200674794841,map,0.29448177128,-0.906632368351,0.0321098086812,0.0824898855384,-0.00949255657741,-0.73102521415,0.677279444714
1311878200706044631,166,1311878200706044631,map,0.297362276096,-0.914021993796,0.0390698127004,0.0846982540892,-0.00960615313696,-0.734270874728,0.673483627824
1311878200742350774,167,1311878200742350774,map,0.291166916138,-0.924890345244,0.0332499030638,0.0837460088001,-0.0115298746391,-0.73571450623,0.67199539614
1311878200774099584,168,1311878200774099584,map,0.290001293551,-0.933739214415,0.0332830906012,0.085179528122,-0.011439091571,-0.738135694249,0.669155653024
1311878200842140522,169,1311878200842140522,map,0.284640515789,-0.953964207856,0.0325575943118,0.0868367805742,-0.012009516012,-0.743309927253,0.663178337749
1311878200874185533,170,1311878200874185533,map,0.281744712776,-0.964355152188,0.0326372833683,0.087269340786,-0.0128227599384,-0.745708695224,0.660407587037
1311878200942493257,171,1311878200942493257,map,0.278861608084,-0.98261491466,0.0298511916957,0.0888709900035,-0.0123944152377,-0.749840868572,0.655505145078
1311878201007925655,172,1311878201007925655,map,0.273740521571,-0.998290299415,0.0389414300931,0.0918818520799,-0.0120078722854,-0.753797288886,0.65054070113
1311878201074134651,173,1311878201074134651,map,0.272321458115,-1.01520400079,0.0285367214302,0.0926701900096,-0.0126707660343,-0.75838409712,0.645062199004
1311878201106946485,174,1311878201106946485,map,0.269048087061,-1.02530719379,0.0324747666233,0.0942064326285,-0.0116813932265,-0.759398632298,0.643663272756
1311878201142269263,175,1311878201142269263,map,0.265951423708,-1.02985642179,0.0298740343712,0.0953815366216,-0.012202177408,-0.761208614089,0.641338387313
1311878201206851465,176,1311878201206851465,map,0.26375350608,-1.04625507755,0.0310048933661,0.0941318634339,-0.0136160936717,-0.762893178915,0.63949027108
1311878201274040957,177,1311878201274040957,map,0.261009380798,-1.06191917186,0.0274038478313,0.0933064861808,-0.0151640526302,-0.763707499939,0.638603781357
1311878201306314659,178,1311878201306314659,map,0.261703639723,-1.07200641701,0.0270110628759,0.0949390186872,-0.014572726906,-0.762925558032,0.639311213817
1311878201342129679,179,1311878201342129679,map,0.257260716232,-1.08113673514,0.0281007258521,0.0966409716183,-0.0137698179193,-0.761267933966,0.641047611636
1311878201374077674,180,1311878201374077674,map,0.257171656554,-1.08943946325,0.0269703037785,0.0977724275414,-0.0132118863595,-0.76003312939,0.642351646862
1311878201406380908,181,1311878201406380908,map,0.252630242829,-1.10191023076,0.0306882446743,0.0994471856802,-0.0122829929028,-0.757899716906,0.644629664566
1311878201474243199,182,1311878201474243199,map,0.250844507103,-1.11954592612,0.0312041438501,0.0980104842994,-0.0133435433784,-0.754475380268,0.648831870902
1311878201506263020,183,1311878201506263020,map,0.249473811036,-1.12803660062,0.0325128367348,0.0972676495492,-0.0132231591359,-0.752322487973,0.651440714928
1311878201574598215,184,1311878201574598215,map,0.248258407313,-1.14698561442,0.030613922461,0.0961071832041,-0.0140115657387,-0.747087744604,0.65759181038
1311878201674091938,185,1311878201674091938,map,0.246050061977,-1.17063949824,0.0215281157793,0.088143943056,-0.0209775619095,-0.738129130136,0.668547654122
1311878201708204696,186,1311878201708204696,map,0.24524837794,-1.17233952128,0.0305791528346,0.0949990397911,-0.0178941553062,-0.733788876034,0.672464752297
1311878201774383690,187,1311878201774383690,map,0.240755793924,-1.19758752519,0.0294825899819,0.0940523376675,-0.0147150208835,-0.722370794634,0.684921940275
1311878201806059291,188,1311878201806059291,map,0.239639852602,-1.18844802828,0.0471697081608,0.0959436595004,-0.0138987540662,-0.71732655079,0.689959611538
1311878201842069969,189,1311878201842069969,map,0.243149092876,-1.21323897841,0.0292314474667,0.0920209879509,-0.0145958311374,-0.712478494569,0.695480771679
1311878201944112534,190,1311878201944112534,map,0.241025009727,-1.22658129942,0.0333185526076,0.0913146022992,-0.0144030397988,-0.699121651784,0.709001508337
1311878202006237418,191,1311878202006237418,map,0.242138117667,-1.25568909398,0.0309868273734,0.0905128833514,-0.0145152106832,-0.68956302222,0.718400706414
1311878202074246392,192,1311878202074246392,map,0.241551797714,-1.26928230527,0.0301951371691,0.0908138840618,-0.0134606530902,-0.679865027827,0.72756800114
1311878202142537533,193,1311878202142537533,map,0.248221336988,-1.3021760269,0.022620495457,0.080211000263,-0.0220210529663,-0.672498461513,0.735409462056
1311878202174269185,194,1311878202174269185,map,0.250144630832,-1.31190612569,0.040740286835,0.083260645075,-0.0207388478127,-0.667548408537,0.739605781417
1311878202206054570,195,1311878202206054570,map,0.240661524944,-1.31772938454,0.0373965544765,0.0858814900162,-0.0197861994735,-0.660932375784,0.745252475731
1311878202274419369,196,1311878202274419369,map,0.226653372109,-1.34741273957,0.0211543659517,0.0825615732606,-0.0170223617927,-0.652959009565,0.752687420195
1311878202342173759,197,1311878202342173759,map,0.230460090416,-1.31059919083,-0.00351168442623,0.0767956061272,-0.020596499069,-0.640127478491,0.764143322646
1311878202374111374,198,1311878202374111374,map,0.236872793073,-1.3387228689,0.025728459072,0.0897338893388,-0.0104401270891,-0.634403980208,0.767704652351
1311878202406054080,199,1311878202406054080,map,0.203633987824,-1.43312548689,0.0469987894427,0.0896702799452,-0.0162672619589,-0.625166711667,0.775152366796
1311878202474733023,200,1311878202474733023,map,0.243769166325,-1.35380168684,-0.0122015116839,0.0769175987775,-0.021999845315,-0.621745771073,0.779122512356
1311878202541994793,201,1311878202541994793,map,0.226484134761,-1.39969647704,0.0254259746273,0.080731660293,-0.0164863608608,-0.607702413704,0.789878703984
1311878202574242827,202,1311878202574242827,map,0.233248264547,-1.41650644059,0.0245055331948,0.0744548065435,-0.01843197628,-0.606589882358,0.791306176218
1311878202606016309,203,1311878202606016309,map,0.246250924905,-1.38988275249,0.0277529991296,0.0748977638638,-0.0203064382247,-0.601670017276,0.794966141127
1311878202674124725,204,1311878202674124725,map,0.243821758703,-1.41244580745,0.0297692659325,0.0761608285485,-0.0184499099614,-0.590960938463,0.802884995004
1311878202742139440,205,1311878202742139440,map,0.258676579032,-1.42472881397,0.0247549425091,0.0778833376463,-0.0167998305395,-0.580011203665,0.810702747846
1311878202806033021,206,1311878202806033021,map,0.254634740702,-1.44524612818,0.0354057083322,0.0766577103004,-0.0159657034651,-0.567469464518,0.819662795042
1311878202842064522,207,1311878202842064522,map,0.259329793424,-1.45437368578,0.0277210633904,0.0761010362496,-0.0175424285225,-0.562411342513,0.823161219623
1311878202875331168,208,1311878202875331168,map,0.263407397191,-1.46099140533,0.0334756591455,0.0750272732649,-0.0169580157659,-0.556788338954,0.827085292167
1311878202906074056,209,1311878202906074056,map,0.271823143672,-1.46751478474,0.029166999652,0.0732490137729,-0.0163402293221,-0.552563295065,0.830085166452
1311878202973957805,210,1311878202973957805,map,0.27970850871,-1.49542608943,0.0177239826143,0.0708296452261,-0.0160506758685,-0.542524126902,0.836894917575
1311878203042060134,211,1311878203042060134,map,0.288776940245,-1.50738730964,0.0314524162475,0.0707815165607,-0.0155259954537,-0.53211176943,0.843567413425
1311878203106632769,212,1311878203106632769,map,0.299807159497,-1.52546138737,0.0341240976735,0.0695198847059,-0.0148381492336,-0.521510300957,0.850278665289
1311878203174238347,213,1311878203174238347,map,0.307250349583,-1.54245838697,0.0394704965979,0.0691283601629,-0.0143306356362,-0.50997313343,0.857288337163
1311878203206098228,214,1311878203206098228,map,0.31260600564,-1.54972762447,0.048140012743,0.065597062583,-0.0159857164032,-0.505119059592,0.860404685174
1311878203273968548,215,1311878203273968548,map,0.323494642036,-1.56171903254,0.041489302565,0.0652978633013,-0.0164755590617,-0.494000027963,0.866849876527
1311878203342073056,216,1311878203342073056,map,0.331359481233,-1.58331558361,0.0461437829491,0.0641389213878,-0.0156551456969,-0.483207740184,0.873012823683
1311878203374071047,217,1311878203374071047,map,0.339050416397,-1.58627259518,0.0419037406442,0.062418196865,-0.0146818152315,-0.47790039778,0.876070559763
1311878203442198236,218,1311878203442198236,map,0.352255887524,-1.6069493717,0.0467482715507,0.0601707862734,-0.0123294513474,-0.466267406157,0.882509027494
1311878203542092302,219,1311878203542092302,map,0.375840119216,-1.62915700465,0.0429316880929,0.0572544139718,-0.0147127194935,-0.449284433802,0.891430849944
1311878203574198435,220,1311878203574198435,map,0.378967175723,-1.6374416957,0.0545072237895,0.0562610240493,-0.0127580082135,-0.443454428521,0.894438434766
1311878203606250571,221,1311878203606250571,map,0.386935932226,-1.64344843338,0.0474374831057,0.056291132866,-0.0120785402286,-0.43891888048,0.896680340926
1311878203642340500,222,1311878203642340500,map,0.392933730733,-1.6604434181,0.0668231417717,0.0536857007617,-0.0187881320062,-0.431844920677,0.900152659052
1311878203706025756,223,1311878203706025756,map,0.410252366645,-1.66659524305,0.0427913002226,0.0516216080621,-0.0206744428893,-0.422600677401,0.90460844831
1311878203805973387,224,1311878203805973387,map,0.425357095928,-1.69321587276,0.0565928928098,0.0530602720659,-0.0132022116716,-0.401565130428,0.914196787042
1311878203841862515,225,1311878203841862515,map,0.436759530855,-1.69623979114,0.046570708171,0.0507602464575,-0.0150451470266,-0.397071565307,0.916259359049
1311878203875365439,226,1311878203875365439,map,0.442211995901,-1.69811371599,0.0572965824648,0.0526343527231,-0.00877922615433,-0.391891818916,0.918462490652
1311878203906099441,227,1311878203906099441,map,0.449607557868,-1.71493388842,0.0660756477795,0.0507744552726,-0.0125255595924,-0.383954635223,0.921869787104
1311878204005977062,228,1311878204005977062,map,0.462825950733,-1.7317362479,0.0555110240719,0.0501388426191,-0.0133079362997,-0.36597093104,0.929179357255
1311878204106130238,229,1311878204106130238,map,0.482695938513,-1.74747839567,0.0628800875363,0.0471351426986,-0.0123699822451,-0.349689510915,0.935597404437
1311878204173937003,230,1311878204173937003,map,0.498739959196,-1.7580810759,0.0599315262334,0.0432974841873,-0.0165281245443,-0.338761259901,0.939730256379
1311878204241956837,231,1311878204241956837,map,0.515912949527,-1.76982998221,0.0644248307453,0.0428613657198,-0.0159337700066,-0.326209779027,0.944190762711
1311878204341849076,232,1311878204341849076,map,0.539435316193,-1.78891462051,0.061155164124,0.0410990727551,-0.0196000368375,-0.308546148315,0.950118929232
1311878204373845104,233,1311878204373845104,map,0.549549361865,-1.78955400387,0.0678324304174,0.0398472944212,-0.0150439081777,-0.30301264876,0.95203424796
1311878204406010706,234,1311878204406010706,map,0.556893015208,-1.80006506574,0.0671814100018,0.0390044402406,-0.0135535571968,-0.294850834385,0.954650689647
1311878204506315516,235,1311878204506315516,map,0.58611742419,-1.81395785097,0.0688003699942,0.036035641979,-0.0129380414009,-0.278709999622,0.95961179234
1311878204573878267,236,1311878204573878267,map,0.594077179165,-1.82423280547,0.0836481577993,0.0361364720932,-0.00927047928863,-0.2629360191,0.964091729907
1311878204606139789,237,1311878204606139789,map,0.604929954442,-1.83152797111,0.0807094194468,0.0361286032922,-0.0124786364577,-0.257398196223,0.965549157075
1311878204673973009,238,1311878204673973009,map,0.612744280089,-1.84201632932,0.0817794038939,0.0356090175591,-0.0165653883444,-0.245145587724,0.968690470435
1311878204773946627,239,1311878204773946627,map,0.642771750721,-1.85349026083,0.0819738412383,0.0322372977021,-0.0156279245779,-0.225871833979,0.973498045262
1311878204806109744,240,1311878204806109744,map,0.653428851703,-1.85959108614,0.0832455776435,0.0312001907321,-0.0153304610106,-0.218996232597,0.975106236893
1311878204841912092,241,1311878204841912092,map,0.666490224475,-1.86136148068,0.0830399449294,0.0305430583283,-0.0135429760265,-0.213645925813,0.976339665739
1311878204873973348,242,1311878204873973348,map,0.67059457285,-1.86655130921,0.0860461062371,0.0304597445258,-0.0127185398917,-0.206911113582,0.977802763135
1311878204973963283,243,1311878204973963283,map,0.694137057841,-1.8826666406,0.0933332261013,0.0299962798293,-0.0168562786319,-0.187834390725,0.98159785058
1311878205006150704,244,1311878205006150704,map,0.7014105986,-1.88531562068,0.0899359781761,0.0292624446941,-0.0165834108916,-0.181742456698,0.982770770632
1311878205073961980,245,1311878205073961980,map,0.729111180295,-1.89745491977,0.0847107412276,0.0262536421285,-0.0178936656273,-0.16835919218,0.985213550774
1311878205173953467,246,1311878205173953467,map,0.759756929947,-1.90533996178,0.087512971149,0.0239491226245,-0.0160398207498,-0.149324629115,0.988368011707
1311878205205990693,247,1311878205205990693,map,0.769152702646,-1.90599897916,0.0916627254381,0.0232518876426,-0.014950649803,-0.143836107256,0.989215349075
1311878205242001709,248,1311878205242001709,map,0.778341895531,-1.90987618446,0.0895107724044,0.0235591961695,-0.0163845289172,-0.136743379239,0.990190764601
1311878205306203887,249,1311878205306203887,map,0.799356708269,-1.91449586803,0.095108375013,0.0223039366356,-0.0138417595162,-0.123257674695,0.992027465049
1311878205373929389,250,1311878205373929389,map,0.817705710462,-1.92071180156,0.0949545254003,0.0206292678123,-0.0162996747194,-0.110532278207,0.99352472409
1311878205406302620,251,1311878205406302620,map,0.832551471957,-1.92237588081,0.0956486361215,0.0208380533188,-0.0132220112164,-0.10477526072,0.994189667757
1311878205473974537,252,1311878205473974537,map,0.847627434098,-1.92537382028,0.102004486856,0.0197836993326,-0.0121010346983,-0.0915936791551,0.995526372846
1311878205506390242,253,1311878205506390242,map,0.855626799623,-1.92927705803,0.0981002067206,0.01945653333,-0.0129572930016,-0.0845287829519,0.99614678784
1311878205542071156,254,1311878205542071156,map,0.863555847834,-1.93239661593,0.101628280305,0.0191319988133,-0.0119854332181,-0.0778667079733,0.996708130697
1311878205673968780,255,1311878205673968780,map,0.895052256317,-1.93431233799,0.109022785647,0.0149708952657,-0.0135460327705,-0.0536408040113,0.998356168416
1311878205741858422,256,1311878205741858422,map,0.915510317071,-1.9344422427,0.11138472351,0.0119197105776,-0.014405032525,-0.0411762315821,0.998976944096
1311878205773950903,257,1311878205773950903,map,0.921550017115,-1.9362686724,0.113147396402,0.0111304098168,-0.0141970511818,-0.0347474157693,0.999233294658
1311878205808989122,258,1311878205808989122,map,0.929581272084,-1.93348587425,0.11440605465,0.00945892527474,-0.012852825833,-0.0289764995401,0.99945269449
1311878205874018710,259,1311878205874018710,map,0.939331701867,-1.93609985811,0.118344861435,0.00870267814695,-0.0122334316535,-0.0165365387705,0.9997505458
1311878205941947309,260,1311878205941947309,map,0.96028037287,-1.93457097249,0.119075341328,0.00602628668863,-0.0133915279144,-0.0029984476353,0.999887676189
1311878206006333067,261,1311878206006333067,map,0.98053131279,-1.93474854908,0.120727151552,0.00401542774085,-0.0132005187294,0.0103269520372,0.999851483999
1311878206073887826,262,1311878206073887826,map,1.00201006364,-1.93181048002,0.124221843965,0.00176160720597,-0.0117705111186,0.0221980248291,0.999682748657
1311878206173770148,263,1311878206173770148,map,1.03613355755,-1.9310652406,0.128023539203,-0.000962044068647,-0.00965544671607,0.0410400273265,0.999110392406
1311878206241923032,264,1311878206241923032,map,1.05769166453,-1.92782309882,0.135878656636,-0.00394837046917,-0.0127372116111,0.0532445380154,0.998492460574
1311878206273922501,265,1311878206273922501,map,1.06384552143,-1.9236452303,0.140169866835,-0.00561410906123,-0.0115288382652,0.0578104433464,0.998245227013
1311878206306839752,266,1311878206306839752,map,1.06818844215,-1.92276197144,0.138869686534,-0.00639628889283,-0.0104520113452,0.0653977446091,0.997784036863
1311878206342000145,267,1311878206342000145,map,1.08542745,-1.91941784202,0.141272606456,-0.00838582314608,-0.00924989094029,0.0721718970788,0.997314057181
1311878206408370327,268,1311878206408370327,map,1.10447105897,-1.91481790419,0.145122905855,-0.0102558403168,-0.00798751452091,0.0843899978173,0.996348008261
1311878206474073654,269,1311878206474073654,map,1.11963584527,-1.91394110261,0.147617718566,-0.0113830359762,-0.0063446114777,0.0979697708328,0.995104062459
1311878206542974315,270,1311878206542974315,map,1.14381982583,-1.90730520059,0.150959671313,-0.0135063193349,-0.00547994947546,0.110823255824,0.993733238283
1311878206608181137,271,1311878206608181137,map,1.1652975373,-1.90054734536,0.151923392615,-0.0154465315014,-0.0061691631253,0.122950938148,0.992273357011
1311878206643523752,272,1311878206643523752,map,1.17370369755,-1.89713805136,0.1522594859,-0.0163229537791,-0.00651597016342,0.129265909949,0.991454198894
1311878206678248519,273,1311878206678248519,map,1.18697763001,-1.89073010859,0.154336216153,-0.0185466947352,-0.00492143019282,0.134796543852,0.990687482951
1311878206706723027,274,1311878206706723027,map,1.1954948792,-1.89044490705,0.154214797484,-0.0192318752572,-0.00556791796294,0.141954054775,0.989670745436
1311878206775755672,275,1311878206775755672,map,1.21651801629,-1.88444708266,0.152956946638,-0.0192091094498,-0.00436280032575,0.155178372703,0.987690058961
1311878206842519142,276,1311878206842519142,map,1.23711117129,-1.88065854909,0.150746683935,-0.0194263440521,-0.00395365353822,0.170245359666,0.985202267606
1311878206906722933,277,1311878206906722933,map,1.26074131355,-1.87388165735,0.156210665229,-0.021483794468,-0.00139478145959,0.184135150214,0.98266512853
1311878206941933076,278,1311878206941933076,map,1.27172968674,-1.86752975584,0.162916800816,-0.0232067760459,0.000712481938234,0.189851625326,0.981538227295
1311878206978365891,279,1311878206978365891,map,1.27960213781,-1.86779254579,0.160394978686,-0.0233807620965,-0.00145678039918,0.197123900701,0.980098662118
1311878207008265608,280,1311878207008265608,map,1.28772491044,-1.86381810833,0.160411004864,-0.0233485493373,-7.59098314848e-05,0.202305237698,0.979044141442
1311878207076554791,281,1311878207076554791,map,1.30615687596,-1.85617789506,0.160037707868,-0.0239949159904,-0.000143552660561,0.215209827288,0.976272990228
1311878207107441288,282,1311878207107441288,map,1.31581936706,-1.85123327118,0.164940163026,-0.0248873727861,0.000671718433793,0.222196213357,0.9746840607
1311878207142367780,283,1311878207142367780,map,1.3259960722,-1.84827545412,0.164764146434,-0.0253058910499,0.000750148004916,0.228763609024,0.973152738652
1311878207176458367,284,1311878207176458367,map,1.33510583491,-1.84390933074,0.167089380761,-0.0265731444395,0.000290088844074,0.23529783268,0.9715599408
1311878207241936164,285,1311878207241936164,map,1.35306645396,-1.83242559095,0.168705956455,-0.0285645712121,-0.00333413738321,0.247895654178,0.968359799402
1311878207342488703,286,1311878207342488703,map,1.37465533308,-1.81866820398,0.170828274038,-0.0309670177731,-0.00320557544074,0.266400561716,0.963359494214
1311878207376941513,287,1311878207376941513,map,1.38669934973,-1.81134208776,0.171490647249,-0.0315815385405,-0.00268974397707,0.272237310683,0.961707969314
1311878207442028292,288,1311878207442028292,map,1.4031703904,-1.80182334489,0.172880052253,-0.0319639188022,-0.0020226664698,0.285104568899,0.957961171733
1311878207507173974,289,1311878207507173974,map,1.42647539259,-1.7897258569,0.172094257393,-0.0333420711149,-0.00271877404705,0.297805388376,0.954040291106
1311878207544522997,290,1311878207544522997,map,1.43075715726,-1.78473486379,0.175040917418,-0.0333809812536,-0.00286691486008,0.303192389641,0.952340209429
1311878207575033485,291,1311878207575033485,map,1.44006553807,-1.77857898464,0.171491677897,-0.0351718091173,-0.00318073178916,0.307923400589,0.950755496213
1311878207674812640,292,1311878207674812640,map,1.46687734533,-1.75905841946,0.172263215701,-0.0376672371068,-0.0024552592896,0.318747749386,0.947087654621
1311878207746533931,293,1311878207746533931,map,1.48634085356,-1.74666881718,0.173336840091,-0.0389970904156,-0.00228987332603,0.323819218685,0.945312168972
1311878207775511439,294,1311878207775511439,map,1.49606902111,-1.73868096206,0.174972976938,-0.0397527077184,-0.00163527781038,0.324909097076,0.944908000376
1311878207843729993,295,1311878207843729993,map,1.51159264435,-1.72617298732,0.175889572537,-0.0407002347964,-0.00222333855608,0.3267581905,0.944228599152
1311878207876200861,296,1311878207876200861,map,1.51946761206,-1.72159610755,0.179286640758,-0.04075246122,-0.00224423858955,0.327779417201,0.943872268916
1311878207943993162,297,1311878207943993162,map,1.53917131492,-1.70829626443,0.182743990883,-0.0402852729228,-0.00324592589916,0.327849161938,0.943865188302
1311878208006369812,298,1311878208006369812,map,1.55322417671,-1.69835302179,0.18337034922,-0.0393419558882,-0.00395753231261,0.326437187422,0.94439150342
1311878208074510035,299,1311878208074510035,map,1.56971876399,-1.68695899372,0.179315741646,-0.0399090811961,-0.00653549060535,0.322955351354,0.945549777494
1311878208145419179,300,1311878208145419179,map,1.58997410395,-1.67483457999,0.179865344007,-0.0392527612183,-0.00746494915614,0.317432718574,0.947438631285
1311878208245251042,301,1311878208245251042,map,1.6158902454,-1.65824357908,0.183827648672,-0.0380304673154,-0.0101092385367,0.304892542783,0.951573453568
1311878208306352034,302,1311878208306352034,map,1.63481703415,-1.64605611323,0.182708757173,-0.0380375888026,-0.0113501835266,0.294717257853,0.954759681208
1311878208375133401,303,1311878208375133401,map,1.64908453585,-1.63558693994,0.184392214713,-0.0372471503786,-0.0121428015142,0.282295904028,0.958527116084
1311878208474738322,304,1311878208474738322,map,1.67892038095,-1.61933048728,0.189891714378,-0.0347064212531,-0.0128903318349,0.262847221856,0.964126884314
1311878208508483585,305,1311878208508483585,map,1.68782779465,-1.61474297592,0.189991257497,-0.0341602632385,-0.0127148412511,0.256525046346,0.965850050481
1311878208647007897,306,1311878208647007897,map,1.72618154144,-1.59704448689,0.198371990823,-0.0308005873733,-0.0122444861001,0.231259961566,0.972327218839
1311878208675636476,307,1311878208675636476,map,1.73648661566,-1.59157785374,0.197472486868,-0.0299271534349,-0.0122894652422,0.224198681343,0.97400630571
1311878208774909935,308,1311878208774909935,map,1.76381858165,-1.57942553425,0.203819222437,-0.0287675158557,-0.0113601310473,0.205029974694,0.978266876644
1311878208807626926,309,1311878208807626926,map,1.77474492663,-1.57535437916,0.203733943285,-0.0284895599246,-0.0118109403521,0.198337713775,0.979648406482
1311878208906621182,310,1311878208906621182,map,1.80977579959,-1.5617703767,0.21175854033,-0.0260907176818,-0.0107132569434,0.179443497819,0.983363881115
1311878208975865875,311,1311878208975865875,map,1.83106825435,-1.55780399089,0.216030448735,-0.0224391775219,-0.0105782329907,0.166880122542,0.985665058817
1311878209074456936,312,1311878209074456936,map,1.86103163562,-1.54954026302,0.219050852341,-0.0196371575825,-0.0109470290823,0.147873008372,0.988750783484
1311878209105912069,313,1311878209105912069,map,1.86705685508,-1.54907012018,0.219634865359,-0.0185191009995,-0.0108654106017,0.140889588243,0.989792456197
1311878209205844244,314,1311878209205844244,map,1.90509860006,-1.54304000642,0.22720663223,-0.0153725201732,-0.00965085812885,0.122816269602,0.992263423087
1311878209274689515,315,1311878209274689515,map,1.92603087893,-1.53856182542,0.229796972803,-0.0142814818005,-0.010009355815,0.109833732053,0.993796958054
1311878209314052823,316,1311878209314052823,map,1.93839707458,-1.53535766018,0.23053376697,-0.0130732714879,-0.0113500672712,0.102616702015,0.994570303882
1311878209342531406,317,1311878209342531406,map,1.93901719029,-1.53909255435,0.23042892215,-0.010011853066,-0.0133017932011,0.0976375954345,0.995082776015
1311878209443029066,318,1311878209443029066,map,1.97777999602,-1.53882157231,0.232146543715,-0.00769028098906,-0.0127838966272,0.0802453824363,0.996663487875
1311878209475616148,319,1311878209475616148,map,1.98317046685,-1.54118782271,0.233449095951,-0.0070197874774,-0.0122731578262,0.0751882483299,0.997069109431
1311878209542609508,320,1311878209542609508,map,2.00735474365,-1.53771359185,0.236132790114,-0.00605144299166,-0.0118402497463,0.0613688317024,0.998026577021
1311878209643243310,321,1311878209643243310,map,2.03695167338,-1.53833014931,0.239532530399,-0.00107723050224,-0.0132031401372,0.0405545153401,0.999089511987
1311878209711947207,322,1311878209711947207,map,2.05463381956,-1.54460295114,0.240954544917,-0.000907260439756,-0.0141396981052,0.0319279872428,0.999389737899
1311878209742604161,323,1311878209742604161,map,2.06902046926,-1.53999127185,0.243482569579,0.00180451688364,-0.0111495420645,0.0233990074888,0.99966240191
1311878209774248168,324,1311878209774248168,map,2.07839593612,-1.53973336933,0.245194445249,0.00148149288289,-0.011044521004,0.0182249792699,0.999771807384
1311878209842595611,325,1311878209842595611,map,2.09531793416,-1.54155760417,0.243935742901,0.00574609073495,-0.0134395082658,0.00879513848695,0.999854501928
1311878209942622358,326,1311878209942622358,map,2.11889895695,-1.53761758143,0.243708872728,0.00478737296744,-0.00950791380154,0.00897592476694,0.999903055797
1311878210010438207,327,1311878210010438207,map,2.12646068124,-1.53824038027,0.245759976916,0.00552573284842,-0.00959234510249,0.00996623622643,0.999889062152
1311878210074306508,328,1311878210074306508,map,2.13058319838,-1.53959906351,0.247216669022,0.00414050006159,-0.00839658395365,0.0122114189992,0.999881610717
1311878210110442824,329,1311878210110442824,map,2.13347480338,-1.54088859563,0.246737436906,0.00560588836253,-0.00891474526879,0.0127497975717,0.999863265047
1311878210142208301,330,1311878210142208301,map,2.13457315851,-1.54007358967,0.246411137901,0.00582805921175,-0.00910580732247,0.0132569632254,0.999853674793
1311878210174308736,331,1311878210174308736,map,2.13072713023,-1.53999163758,0.247970637154,0.00517455254654,-0.00885342239407,0.0137178637622,0.999853317112
1311878210212859172,332,1311878210212859172,map,2.12924219983,-1.53932711553,0.247121970168,0.00472551154066,-0.0102486610018,0.0129346511444,0.999852653913
1311878210242548499,333,1311878210242548499,map,2.12767951538,-1.53826980201,0.247371528582,0.00379740191355,-0.00994038013105,0.012650264866,0.999863361918
1311878210274577047,334,1311878210274577047,map,2.12764450627,-1.53873990905,0.245799086589,0.00467554452948,-0.0105783560415,0.0135647909131,0.999841103745
1311878210310597929,335,1311878210310597929,map,2.13102441872,-1.53718913564,0.245061778253,0.00601128636269,-0.0108239466018,0.0137314631821,0.999829061621
1311878210373735656,336,1311878210373735656,map,2.12464018722,-1.53837250292,0.245029944017,0.00441303793033,-0.00820196638175,0.0188352000322,0.999779222376
1311878210410603721,337,1311878210410603721,map,2.12242437409,-1.53871678968,0.244664642211,0.00515854886452,-0.00661657111348,0.0209352969244,0.99974563463
1311878210445005379,338,1311878210445005379,map,2.11803885522,-1.538378084,0.244649974508,0.00483785839689,-0.00693810007976,0.0232650100825,0.999693547917
1311878210473702902,339,1311878210473702902,map,2.11498747515,-1.53991816814,0.244172106082,0.00538388559277,-0.00726097601142,0.0260619018626,0.999619456244
1311878210513258818,340,1311878210513258818,map,2.10344175552,-1.542256821,0.243403569107,0.00617627183149,-0.00845414377372,0.0297797377585,0.999501655502
1311878210573922518,341,1311878210573922518,map,2.08775496424,-1.54250530385,0.244791681843,0.00534116187451,-0.00904338967754,0.0353829399552,0.999318635793
1311878210611041425,342,1311878210611041425,map,2.0783107168,-1.54201786264,0.242847627586,0.00517486878652,-0.00995003653715,0.0375828348605,0.999230573106
1311878210643915332,343,1311878210643915332,map,2.07068585499,-1.54101159035,0.242230903421,0.00416115329768,-0.00939263459787,0.0398524014861,0.999152763401
1311878210711974957,344,1311878210711974957,map,2.05551261847,-1.54088275006,0.24125666442,0.00419602896083,-0.0116519416057,0.0434473988437,0.998978950353
1311878210742085093,345,1311878210742085093,map,2.0395666958,-1.54217732101,0.241578878903,0.00323098826098,-0.0139424271932,0.0468957244127,0.998797259639
1311878210773874648,346,1311878210773874648,map,2.02853840937,-1.54363041607,0.240161335225,0.00376819502617,-0.0144781085806,0.0491159288748,0.998681040509
1311878210845242078,347,1311878210845242078,map,2.00883136558,-1.54336091389,0.236762100679,0.00614760595725,-0.0159810372427,0.0542996887545,0.99837786268
1311878210873710687,348,1311878210873710687,map,1.99532860573,-1.54460074841,0.236140367225,0.00757540512263,-0.0113449167101,0.0605498328286,0.998071950161
1311878210942509866,349,1311878210942509866,map,1.98121361628,-1.5422986297,0.235806594996,8.0773618175e-05,-0.00719480527986,0.066274865159,0.997775464564
1311878210973963052,350,1311878210973963052,map,1.97168492618,-1.54328655995,0.232958797375,0.000137785619977,-0.00806665180261,0.0677612376765,0.997668946857
1311878211044346263,351,1311878211044346263,map,1.94418684446,-1.54396174328,0.232809326412,-0.00153395729026,-0.00953463081847,0.0712684135924,0.997410423863
1311878211110659282,352,1311878211110659282,map,1.92306064229,-1.54657722307,0.231654804718,-0.00106848234981,-0.00990478286099,0.0745589603892,0.997166844701
1311878211142756660,353,1311878211142756660,map,1.91444545473,-1.54617543482,0.229789951793,0.000362988268811,-0.0101613365117,0.0767005286651,0.997002333099
1311878211242562527,354,1311878211242562527,map,1.88660573432,-1.54927822235,0.225804542609,-0.00297580969657,-0.00694542619181,0.0854217475387,0.996316226723
1311878211273801988,355,1311878211273801988,map,1.87246153142,-1.54963999267,0.222089034008,-0.00390483014631,-0.00764756898352,0.0880206393457,0.996081640133
1311878211312296408,356,1311878211312296408,map,1.86640842654,-1.54612124544,0.227162752071,-0.0062656514014,-0.00538424231456,0.0886111123421,0.99603203975
1311878211373888464,357,1311878211373888464,map,1.84314339695,-1.54966160588,0.225768211607,-0.00713415922655,-0.00578473720205,0.0921480086662,0.995702958584
1311878211410528389,358,1311878211410528389,map,1.83559400009,-1.5487756929,0.231729041685,-0.00706069038949,-0.00370078562817,0.0929585500236,0.995638073682
1311878211473798097,359,1311878211473798097,map,1.8129840743,-1.55219837733,0.22895977171,-0.0075307288234,-0.00593394356272,0.0970141125661,0.995236832274
1311878211510483605,360,1311878211510483605,map,1.79411604974,-1.55231950741,0.226273532249,-0.00787397914708,-0.00551456840352,0.0979193785698,0.995147921731
1311878211541946903,361,1311878211541946903,map,1.7863098133,-1.55410755141,0.226672640311,-0.00770265286639,-0.0036209862186,0.0998513454534,0.994965965753
1311878211610406349,362,1311878211610406349,map,1.76707262555,-1.55642249883,0.224088437346,-0.00934217310476,-0.00252842434973,0.103094269258,0.994624509132
1311878211673851023,363,1311878211673851023,map,1.74546145392,-1.55949447904,0.221590933412,-0.0102912788145,-0.00277557108734,0.105398065223,0.994372987104
1311878211773933847,364,1311878211773933847,map,1.71589743536,-1.56520045911,0.218795801359,-0.0106168912075,-0.00239081914545,0.109418864135,0.993936154186
1311878211810307353,365,1311878211810307353,map,1.70462715348,-1.56623042675,0.218313396035,-0.0110019694686,-0.00203145919107,0.110584771461,0.993803727899
1311878211910784845,366,1311878211910784845,map,1.66614987261,-1.57369632564,0.214373498251,-0.0115495800447,-0.00495498915401,0.115218745145,0.993260636787
1311878211973828791,367,1311878211973828791,map,1.64346353028,-1.57749329468,0.210535226925,-0.0123617742939,-0.00991029532929,0.117693583884,0.992923561166
1311878212010605026,368,1311878212010605026,map,1.63078064889,-1.57971904324,0.205754839463,-0.0127087791385,-0.0120352190206,0.117840707387,0.992878237905
1311878212073994459,369,1311878212073994459,map,1.61122555453,-1.58201787382,0.206801442127,-0.0125018121134,-0.00783266052306,0.12009349834,0.992652964107
1311878212113665141,370,1311878212113665141,map,1.60507897609,-1.58329288677,0.202476246506,-0.0133622947745,-0.00697089009161,0.12094442115,0.992544860763
1311878212141855755,371,1311878212141855755,map,1.59722933409,-1.58512918664,0.202978314415,-0.0129941947643,-0.00376855480962,0.122240022576,0.992408344892
1311878212241720152,372,1311878212241720152,map,1.57361398158,-1.58850053875,0.198215941665,-0.0146798772768,-0.00294222521044,0.124192754883,0.992145154455
1311878212341925976,373,1311878212341925976,map,1.54629835948,-1.59632923821,0.196338879877,-0.0138857483892,-0.00328285079535,0.126848564833,0.991819471152
1311878212412007262,374,1311878212412007262,map,1.53195566861,-1.60290905851,0.194862470767,-0.0137299544145,-0.00417865401854,0.129087921558,0.991529291452
